{
  "siteId": "2026-orion-geneva",
  "exportedAt": 1779545755,
  "portals": [
    {
      "title": "La Terrasse en Peinture",
      "lat": 46.201265,
      "lng": 6.155728,
      "ornamentId": "ap1",
      "guid": "6c5d93d83254443f80b48dff44800b62.16"
    },
    {
      "title": "Borne Vieux Tram",
      "lat": 46.201094,
      "lng": 6.155506,
      "ornamentId": "ap1",
      "guid": "f9ae7d4e221a4ea58c434eefa0eab057.16"
    },
    {
      "title": "Fontaine Cours de Rive",
      "lat": 46.201388,
      "lng": 6.153809,
      "ornamentId": "ap1",
      "guid": "e0608c43ad114ca8826e9e3f1d8a26d0.16"
    },
    {
      "title": "Statue De La Poste",
      "lat": 46.202304,
      "lng": 6.161323,
      "ornamentId": "ap1",
      "guid": "71af9ebc0b9844eaa17487c92fd0e7bf.16"
    },
    {
      "title": "Cubi Sculpture",
      "lat": 46.200405,
      "lng": 6.157148,
      "ornamentId": "ap1",
      "guid": "418811d64cb64e6db673bb13d864d614.16"
    },
    {
      "title": "Portique En Pierre Gravée",
      "lat": 46.197995,
      "lng": 6.154628,
      "ornamentId": "ap1",
      "guid": "ece1431a38604e0bb6669098aeef58b3.16"
    },
    {
      "title": "Borne échecs",
      "lat": 46.204453,
      "lng": 6.157831,
      "ornamentId": "ap1",
      "guid": "c710679a9dbe3691b9db5ecffd6c301a.16"
    },
    {
      "title": "Le bois raméal fragmenté",
      "lat": 46.199316,
      "lng": 6.15769,
      "ornamentId": "ap1",
      "guid": "77a6fea458a34c07a7a5abd289f6bcab.16"
    },
    {
      "title": "Chevaux de bois",
      "lat": 46.199906,
      "lng": 6.159809,
      "ornamentId": "ap1",
      "guid": "7f06b070c4f4383b8e34477e4b2b8d56.16"
    },
    {
      "title": "Mairie Des Eaux-Vives",
      "lat": 46.201637,
      "lng": 6.159686,
      "ornamentId": "ap1",
      "guid": "c8a62f7a9a2b4fdb99f6b7f70a23cd77.16"
    },
    {
      "title": "Anamorphose 1992",
      "lat": 46.200151,
      "lng": 6.157518,
      "ornamentId": "ap1",
      "guid": "97b92b4760fc4d609857d0c8f3411d4f.16"
    },
    {
      "title": "Le Plus Ancien Bâtiment Des Eaux Vives",
      "lat": 46.204899,
      "lng": 6.160749,
      "ornamentId": "ap1",
      "guid": "558341d18e9f43778d6cea6a44c6ce7e.16"
    },
    {
      "title": "Carillon De L'église Catholique Romaine",
      "lat": 46.202749,
      "lng": 6.158442,
      "ornamentId": "ap1",
      "guid": "928fc387cc4341318fb505e1648ef3c2.16"
    },
    {
      "title": "Sculpture murale géometrique abstraite",
      "lat": 46.203494,
      "lng": 6.159593,
      "ornamentId": "ap1",
      "guid": "4a0bd04a974343d2bd327bcff6726c26.16"
    },
    {
      "title": "Mosaique de l'arbre flottant",
      "lat": 46.205025,
      "lng": 6.16225,
      "ornamentId": "ap1",
      "guid": "511a14911b644e04addef27ddab7853f.16"
    },
    {
      "title": "Paroisse Eaux Vives",
      "lat": 46.201557,
      "lng": 6.16076,
      "ornamentId": "ap1",
      "guid": "bd560cc783544e6b82f52800c7ac6671.16"
    },
    {
      "title": "Tequería",
      "lat": 46.203355,
      "lng": 6.160249,
      "ornamentId": "ap1",
      "guid": "bf417526ec6230fba02b0a6529cd86c5.16"
    },
    {
      "title": "Fontaine Merle D'aubigné",
      "lat": 46.204794,
      "lng": 6.164758,
      "ornamentId": "ap1",
      "guid": "c306602fc8e84f9b80c00aeb54800c4e.16"
    },
    {
      "title": "Fontaine De L'esplanade",
      "lat": 46.198645,
      "lng": 6.155005,
      "ornamentId": "ap1",
      "guid": "7a6118dd4dd5468995c92a07b94db1be.16"
    },
    {
      "title": "Sculpture murale femme assise",
      "lat": 46.204338,
      "lng": 6.162789,
      "ornamentId": "ap1",
      "guid": "c16b411bf0fd47e78139d6d71aebe7f3.16"
    },
    {
      "title": "Eaux-Vives 2000",
      "lat": 46.2006,
      "lng": 6.159827,
      "ornamentId": "ap1",
      "guid": "dc33c9ef01a8437aaaf5841c829e30ad.11"
    },
    {
      "title": "Mad Lion De Villereuse",
      "lat": 46.199994,
      "lng": 6.159018,
      "ornamentId": "ap1",
      "guid": "72701812fe644a3cbf266adef31d61be.16"
    },
    {
      "title": "La prairie graveleuse et la Thomise variable",
      "lat": 46.198513,
      "lng": 6.157981,
      "ornamentId": "ap1",
      "guid": "35d2dd353b1e39cd889cf9e35e87b5f0.16"
    },
    {
      "title": "Baromètre du Jardin Anglais",
      "lat": 46.20346,
      "lng": 6.153881,
      "ornamentId": "ap1",
      "guid": "d8de60268cc540a5bf6a4c2487e02cf2.16"
    },
    {
      "title": "Pavillon des Tranchées",
      "lat": 46.198982,
      "lng": 6.154517,
      "ornamentId": "ap1",
      "guid": "2fbe7ab9efd6312184fb3f9529ec301d.16"
    },
    {
      "title": "Fontaine Du Clos",
      "lat": 46.20547,
      "lng": 6.162651,
      "ornamentId": "ap1",
      "guid": "7c19ace5250d4af0b4e6c856753ca8eb.16"
    },
    {
      "title": "Fontaine D'eau",
      "lat": 46.204174,
      "lng": 6.164578,
      "ornamentId": "ap1",
      "guid": "137ce704eb42465da90e38f4e36333ab.16"
    },
    {
      "title": "Graffiti Parking Villereuse",
      "lat": 46.200412,
      "lng": 6.159087,
      "ornamentId": "ap1",
      "guid": "ffe26f81d5fb353c888e0679351b30d2.16"
    },
    {
      "title": "Ancien Candélabre",
      "lat": 46.205061,
      "lng": 6.160225,
      "ornamentId": "ap1",
      "guid": "be48ae9779114fd395ae305fac4def7e.16"
    },
    {
      "title": "Bloc Erratique 36 Tonnes",
      "lat": 46.199095,
      "lng": 6.157458,
      "ornamentId": "ap1",
      "guid": "c41c2b9a6f864899bc861f73e925e98a.16"
    },
    {
      "title": "Fontaine Frontenex",
      "lat": 46.201691,
      "lng": 6.158734,
      "ornamentId": "ap1",
      "guid": "8ec1f17aa3d246f1bae90af6badb997a.16"
    },
    {
      "title": "Fondateurs Donateurs 1900-1948",
      "lat": 46.201587,
      "lng": 6.161049,
      "ornamentId": "ap1",
      "guid": "be02d9814b2c4165a9b7187721ebec53.16"
    },
    {
      "title": "Citation murale",
      "lat": 46.19984,
      "lng": 6.157101,
      "ornamentId": "ap1",
      "guid": "73905a2580c54e9a89b46024937e0822.16"
    },
    {
      "title": "Fabulae “Eaux-Vives”",
      "lat": 46.201236,
      "lng": 6.158791,
      "ornamentId": "ap1",
      "guid": "8fbc31ee223b4c38acd20c8cacc6ea60.16"
    },
    {
      "title": "Pharmacie de la rue de Montchoisy",
      "lat": 46.204362,
      "lng": 6.162281,
      "ornamentId": "ap1",
      "guid": "b25698929d36301191811ac94121dcd2.16"
    },
    {
      "title": "Ombres gravissant les marches d’un escalier",
      "lat": 46.205355,
      "lng": 6.160872,
      "ornamentId": "ap1",
      "guid": "b0a3be0d8b6930479bc0d7850b10dade.16"
    },
    {
      "title": "Tamanoir",
      "lat": 46.198382,
      "lng": 6.158545,
      "ornamentId": "ap1",
      "guid": "65e08fbce258412183d8e78318902920.16"
    },
    {
      "title": "Alberto Ginastera 1916-1983",
      "lat": 46.205262,
      "lng": 6.164464,
      "ornamentId": "ap1",
      "guid": "c32db6aa387a4b39aea992188e8c6721.16"
    },
    {
      "title": "Jh Merle d'aubigné",
      "lat": 46.204898,
      "lng": 6.163599,
      "ornamentId": "ap1",
      "guid": "19d6b5cd20214db4acca063fd4464578.16"
    },
    {
      "title": "Tour Carrée",
      "lat": 46.198788,
      "lng": 6.1541,
      "ornamentId": "ap1",
      "guid": "d5dd575097564116a1e5601b4bc09558.16"
    },
    {
      "title": "Bibliothèque des Eaux-Vives",
      "lat": 46.20485,
      "lng": 6.162031,
      "ornamentId": "ap1",
      "guid": "21f589415c59442fae6276231f1d78af.16"
    },
    {
      "title": "Portique",
      "lat": 46.205103,
      "lng": 6.158228,
      "ornamentId": "ap1",
      "guid": "84b48b127f0a46c2bc0a566be7e086d2.16"
    },
    {
      "title": "Street Art Borne",
      "lat": 46.203265,
      "lng": 6.159908,
      "ornamentId": "ap1",
      "guid": "f2f8d3618a724920831b68043e126aa0.16"
    },
    {
      "title": "Sculpture Murale Eaux Vives",
      "lat": 46.203148,
      "lng": 6.157377,
      "ornamentId": "ap1",
      "guid": "be514b09613a402096a9a455e7d85548.16"
    },
    {
      "title": "L Hacienda",
      "lat": 46.203485,
      "lng": 6.157693,
      "ornamentId": "ap1",
      "guid": "4d07b08edf9941d997b7015f14d98cad.16"
    },
    {
      "title": "Les carrés de terre nue et l’Osmie rousse",
      "lat": 46.199263,
      "lng": 6.158754,
      "ornamentId": "ap1",
      "guid": "e0eb06d9cbb93c14aa2f55d5af99f5df.16"
    },
    {
      "title": "Peinture Murale 2",
      "lat": 46.205001,
      "lng": 6.161695,
      "ornamentId": "ap1",
      "guid": "b46adcb1b4b3404fb0421d4026edb572.16"
    },
    {
      "title": "Peinture Murale",
      "lat": 46.203127,
      "lng": 6.160628,
      "ornamentId": "ap1",
      "guid": "a998a1caaf8e476f9e04ed0de6e89020.16"
    },
    {
      "title": "Église Évangélique Baptiste",
      "lat": 46.203366,
      "lng": 6.158987,
      "ornamentId": "ap1",
      "guid": "26a81f4a392549b39b99b5dee15a3fa0.16"
    },
    {
      "title": "Fleurs suspendues",
      "lat": 46.205045,
      "lng": 6.156895,
      "ornamentId": "ap1",
      "guid": "e70c89c532d73245b5875de118683509.16"
    },
    {
      "title": "Fontaine parc Malagnou",
      "lat": 46.198814,
      "lng": 6.158971,
      "ornamentId": "ap1",
      "guid": "5ffb39642c2f4ecaa638e9d5a2cf992a.16"
    },
    {
      "title": "Street Art Vollandes",
      "lat": 46.204444,
      "lng": 6.161277,
      "ornamentId": "ap1",
      "guid": "d101be22005a49c6919336d4934d8564.16"
    },
    {
      "title": "Borne Mascaron",
      "lat": 46.20287,
      "lng": 6.162459,
      "ornamentId": "ap1",
      "guid": "b952ecbc2bfb30288dd8e59b98e03631.16"
    },
    {
      "title": "Salle de la Réformation",
      "lat": 46.202729,
      "lng": 6.154664,
      "ornamentId": "ap1",
      "guid": "46e27114f92049f8bab8fe0ea67a3910.16"
    },
    {
      "title": "Maison Du Paon",
      "lat": 46.202848,
      "lng": 6.155274,
      "ornamentId": "ap1",
      "guid": "1ddbc3fe2f5f46adbb99cf93201170a1.16"
    },
    {
      "title": "Les Tranchees de Geneve",
      "lat": 46.198627,
      "lng": 6.156076,
      "ornamentId": "ap1",
      "guid": "33bb3e4f4a473d4f8089c14e85b9cb61.16"
    },
    {
      "title": "Gravure d'entrée n°1",
      "lat": 46.203898,
      "lng": 6.158467,
      "ornamentId": "ap1",
      "guid": "5977652f87be4f3aad12f9af108b00d7.16"
    },
    {
      "title": "Borne Archi",
      "lat": 46.204978,
      "lng": 6.16387,
      "ornamentId": "ap1",
      "guid": "b621f3e7d3dd4148b722785b4a2e2d10.16"
    },
    {
      "title": "Symphony Coiffure",
      "lat": 46.203373,
      "lng": 6.158208,
      "ornamentId": "ap1",
      "guid": "cfd7ba1d65c049388cb8b74c805fe847.16"
    },
    {
      "title": "Aux Beaux Arts",
      "lat": 46.200692,
      "lng": 6.154515,
      "ornamentId": "ap1",
      "guid": "7667e2991583462a85adb09f2b762115.16"
    },
    {
      "title": "Panneau d’affichage, Eaux-Vives",
      "lat": 46.202281,
      "lng": 6.158719,
      "ornamentId": "ap1",
      "guid": "572801262baa37089c9fd5980f81ab7f.16"
    },
    {
      "title": "Horloge du bijoutier",
      "lat": 46.202658,
      "lng": 6.159219,
      "ornamentId": "ap1",
      "guid": "cb00015aa292379cb418da38b1a87e36.16"
    },
    {
      "title": "Librairie du Cinéma",
      "lat": 46.201007,
      "lng": 6.156837,
      "ornamentId": "ap1",
      "guid": "df41ad695ae647e39d654016056e925d.16"
    },
    {
      "title": "Chanzy",
      "lat": 46.205721,
      "lng": 6.163629,
      "ornamentId": "ap1",
      "guid": "80eddd93b96a454ea89a896c15d027e9.16"
    },
    {
      "title": "Sculpture Murale Cherbuliez",
      "lat": 46.203804,
      "lng": 6.15812,
      "ornamentId": "ap1",
      "guid": "1dab619c74bb4f7d9fc6714cc7c62aa5.16"
    },
    {
      "title": "Mascaron du Quai Ador",
      "lat": 46.205367,
      "lng": 6.157579,
      "ornamentId": "ap1",
      "guid": "3ec682fe0d203e838cb15f30a314dba7.16"
    },
    {
      "title": "Aire de jeux Malagnou",
      "lat": 46.198757,
      "lng": 6.160455,
      "ornamentId": "ap1",
      "guid": "524f71ae059a42aca0aeb85ac34a06b7.16"
    },
    {
      "title": "Art Deco 27",
      "lat": 46.203453,
      "lng": 6.159907,
      "ornamentId": "ap1",
      "guid": "04663cb8b33d326d95e2cb8b32feed9a.16"
    },
    {
      "title": "San Remo",
      "lat": 46.202664,
      "lng": 6.156951,
      "ornamentId": "ap1",
      "guid": "21fb760e4ffe4d92a85d3ce7a060a177.16"
    },
    {
      "title": "Arche De Portique",
      "lat": 46.2024,
      "lng": 6.155434,
      "ornamentId": "ap1",
      "guid": "7c30ad269700499981068f4253af9405.16"
    },
    {
      "title": "Gravure Sur Portique",
      "lat": 46.202977,
      "lng": 6.15567,
      "ornamentId": "ap1",
      "guid": "5cd57aceaa434934b0d645b69590f1ab.16"
    },
    {
      "title": "Tourterelle Face en bas",
      "lat": 46.203523,
      "lng": 6.163931,
      "ornamentId": "ap1",
      "guid": "164814cc7e96382db76995e288bb8943.16"
    },
    {
      "title": "Gravure d'entrée Genève",
      "lat": 46.204815,
      "lng": 6.159844,
      "ornamentId": "ap1",
      "guid": "1cc130ac60b542e1af530ee14653337a.16"
    },
    {
      "title": "Porte Gravée Sur Pierre",
      "lat": 46.203849,
      "lng": 6.161189,
      "ornamentId": "ap1",
      "guid": "8177c08995594b7b951536021813bf39.16"
    },
    {
      "title": "Blason d’entrée",
      "lat": 46.202486,
      "lng": 6.159964,
      "ornamentId": "ap1",
      "guid": "b073fc63fcc1474fb8a2bddfe842553f.16"
    },
    {
      "title": "Le vieux bois et le Lucane cerf-volant",
      "lat": 46.199504,
      "lng": 6.159253,
      "ornamentId": "ap1",
      "guid": "682151d774c043d5923ad404a9084fb8.16"
    },
    {
      "title": "Fontaine Lachenal",
      "lat": 46.199953,
      "lng": 6.155985,
      "ornamentId": "ap1",
      "guid": "e064efc44c7c4a45b16026bdc13828e4.16"
    },
    {
      "title": "Le nichoir et la Pipistrelle commune",
      "lat": 46.198968,
      "lng": 6.159091,
      "ornamentId": "ap1",
      "guid": "bec51a400e2f4271bbd717e4f322990b.16"
    },
    {
      "title": "Godzilla Graffiti",
      "lat": 46.199608,
      "lng": 6.159624,
      "ornamentId": "ap1",
      "guid": "46c066515adc47f9bb604cae17e86050.16"
    },
    {
      "title": "Borne Archi",
      "lat": 46.197998,
      "lng": 6.154404,
      "ornamentId": "ap1",
      "guid": "89d6e6cbf9d14fbe8399acfaaaa5640d.16"
    },
    {
      "title": "Façade Tetris",
      "lat": 46.203966,
      "lng": 6.156721,
      "ornamentId": "ap1",
      "guid": "44aa85d5ddcc4a948c799137e3dfac99.16"
    },
    {
      "title": "Fontaine de l’ancien musée de l’horlogerie",
      "lat": 46.198408,
      "lng": 6.160157,
      "ornamentId": "ap1",
      "guid": "72e816d82a224a9ebe6e6b8523736c22.16"
    },
    {
      "title": "Fontaine De Frontenex",
      "lat": 46.2019,
      "lng": 6.157929,
      "ornamentId": "ap1",
      "guid": "88f8c188e8944a0185bac9f49201435f.16"
    },
    {
      "title": "Fontaine Muzy",
      "lat": 46.203145,
      "lng": 6.157114,
      "ornamentId": "ap1",
      "guid": "5fec1983f9834d91b08c8b50557d1120.16"
    },
    {
      "title": "Le nichoir et la Mésange charbonnière",
      "lat": 46.198504,
      "lng": 6.160019,
      "ornamentId": "ap1",
      "guid": "d75d9a1de3a449b9877eac46187afcab.16"
    },
    {
      "title": "Arcadia",
      "lat": 46.204113,
      "lng": 6.158585,
      "ornamentId": "ap1",
      "guid": "a4b0dd71c4474518a8444f6c611c80a2.16"
    },
    {
      "title": "Poste des Eaux-Vives",
      "lat": 46.202599,
      "lng": 6.161372,
      "ornamentId": "ap1",
      "guid": "a08e9f4b3e1e3ea69a2a53cfdde1ba58.16"
    },
    {
      "title": "Ludothèque des Eaux-Vives",
      "lat": 46.202948,
      "lng": 6.161653,
      "ornamentId": "ap1",
      "guid": "991bc7d41daf3edb8ff6de9f95434cb1.16"
    },
    {
      "title": "Fresque Murale",
      "lat": 46.203908,
      "lng": 6.161832,
      "ornamentId": "ap1",
      "guid": "6cc55066b57642ae95a0d63fbdad11c6.16"
    },
    {
      "title": "L’abrevoir à oiseaux et le Pic épeiche",
      "lat": 46.199757,
      "lng": 6.158397,
      "ornamentId": "ap1",
      "guid": "3029dcccfc1e3e678487a20ff5f6fe9b.16"
    },
    {
      "title": "Fontaine Helvétique",
      "lat": 46.200504,
      "lng": 6.154144,
      "ornamentId": "ap1",
      "guid": "d9503da1537242aa804985e26c27b60c.16"
    },
    {
      "title": "Terrain de jeu parc Villereuse",
      "lat": 46.200074,
      "lng": 6.159208,
      "ornamentId": "ap1",
      "guid": "d8c2a2eb697e40eb89ff8fc6638f9767.16"
    },
    {
      "title": "Cattaneo Sanitaire",
      "lat": 46.20324,
      "lng": 6.158953,
      "ornamentId": "ap1",
      "guid": "d12707e872ce4eaebdfa60d30c1bb3cf.16"
    },
    {
      "title": "Consulat général d’Autriche",
      "lat": 46.203058,
      "lng": 6.16325,
      "ornamentId": "ap1",
      "guid": "c87d642e2a6042559280f997b9345df9.16"
    },
    {
      "title": "Sculpture De Porte",
      "lat": 46.205449,
      "lng": 6.160537,
      "ornamentId": "ap1",
      "guid": "f4e2966af6494e87aea8c1a0950df3a7.16"
    },
    {
      "title": "Lézard des murailles et Criquet duettiste",
      "lat": 46.199057,
      "lng": 6.15668,
      "ornamentId": "ap1",
      "guid": "c9eec476553c31c88fd11a3345f71663.16"
    },
    {
      "title": "Musée Clarté",
      "lat": 46.200287,
      "lng": 6.156381,
      "ornamentId": "ap1",
      "guid": "2c077f1d67c948659ec22f5c65481fe7.16"
    },
    {
      "title": "Toiture Fantaisie",
      "lat": 46.202313,
      "lng": 6.157827,
      "ornamentId": "ap1",
      "guid": "f0d645aebf7c497cba56db4ea73a9ca5.16"
    },
    {
      "title": "Backyard Spiral",
      "lat": 46.200681,
      "lng": 6.157187,
      "ornamentId": "ap1",
      "guid": "15de5024910b4609a80d7b865bb6892f.16"
    },
    {
      "title": "Petite Pause",
      "lat": 46.200048,
      "lng": 6.153807,
      "ornamentId": "ap1",
      "guid": "da1bca932bdd4a168f349d6372d9911e.16"
    },
    {
      "title": "Fontaine Édouard Martin",
      "lat": 46.201476,
      "lng": 6.160378,
      "ornamentId": "ap1",
      "guid": "b6a3eecd11454f68ad615b0db883cc6d.16"
    },
    {
      "title": "Lionhead Halles de Rive",
      "lat": 46.20192,
      "lng": 6.154875,
      "ornamentId": "ap1",
      "guid": "86bd783553cd462c8eb4bb51adca7e4c.16"
    },
    {
      "title": "Le City - Cinema",
      "lat": 46.202256,
      "lng": 6.15672,
      "ornamentId": "ap1",
      "guid": "e6630b9930fe49f885a6ab87f0296272.16"
    },
    {
      "title": "Vase Ancien",
      "lat": 46.202002,
      "lng": 6.160082,
      "ornamentId": "ap1",
      "guid": "fced8c356eb24e5492a6ac3f976e34b2.16"
    },
    {
      "title": "P. Elie Louis Piachaud",
      "lat": 46.198423,
      "lng": 6.154171,
      "ornamentId": "ap1",
      "guid": "cf466514d94f425583864ef38e1d56ac.16"
    },
    {
      "title": "Porte Sculptée",
      "lat": 46.202085,
      "lng": 6.15912,
      "ornamentId": "ap1",
      "guid": "fce8c704f9ae42168e4b99ac35657846.16"
    },
    {
      "title": "Le Berger",
      "lat": 46.202224,
      "lng": 6.155347,
      "ornamentId": "ap1",
      "guid": "688764515b4d40acab5b31e6f1626dda.16"
    },
    {
      "title": "Fontaine Département de la culture",
      "lat": 46.198693,
      "lng": 6.159386,
      "ornamentId": "ap1",
      "guid": "0af0aa67bb5d4e80950eaa0da3654aef.16"
    },
    {
      "title": "Stettler",
      "lat": 46.202514,
      "lng": 6.155734,
      "ornamentId": "ap1",
      "guid": "73fbca60a4ed48a2a1b9e754320ddfd9.16"
    },
    {
      "title": "Fontaine Place Eaux Vives",
      "lat": 46.202512,
      "lng": 6.156288,
      "ornamentId": "ap1",
      "guid": "08ab76b19be446c186e241ba73f683c9.16"
    },
    {
      "title": "Rêve en La-Bemol",
      "lat": 46.19836,
      "lng": 6.159219,
      "ornamentId": "ap1",
      "guid": "86ffa61f1ef349089cb3a98fa79fc746.16"
    },
    {
      "title": "Geneva Islamic Center",
      "lat": 46.205744,
      "lng": 6.161043,
      "ornamentId": "ap1",
      "guid": "3dee9e871d8048a9a08a150ccd79f3db.16"
    },
    {
      "title": "Portail Lux",
      "lat": 46.204243,
      "lng": 6.156056,
      "ornamentId": "ap1",
      "guid": "91f6731ea4b64836bee942aba88b55ba.16"
    },
    {
      "title": "Autre Fresque Vollandes",
      "lat": 46.202648,
      "lng": 6.163126,
      "ornamentId": "ap1",
      "guid": "715d73e369474bb4a26948ea130af660.16"
    },
    {
      "title": "Fontaine De L'avenir",
      "lat": 46.205075,
      "lng": 6.161398,
      "ornamentId": "ap1",
      "guid": "dab0465a85e64ad398fef591232b8082.16"
    },
    {
      "title": "Église Saint-Joseph",
      "lat": 46.202267,
      "lng": 6.155865,
      "ornamentId": "ap1",
      "guid": "0359e04d798e4ae1a5d5249524b33a43.11"
    },
    {
      "title": "La Pêche",
      "lat": 46.201208,
      "lng": 6.154599,
      "ornamentId": "ap1",
      "guid": "e55aef6f08c34ede95505f7e5c632a01.16"
    },
    {
      "title": "La Bodega",
      "lat": 46.203885,
      "lng": 6.157879,
      "ornamentId": "ap1",
      "guid": "3192ed691c9c4049b313ff2328460c85.16"
    },
    {
      "title": "Shogun - Restaurant Japonais",
      "lat": 46.204133,
      "lng": 6.158996,
      "ornamentId": "ap1",
      "guid": "023467f262b246ea87b55c9232f5cee1.16"
    },
    {
      "title": "Cafe Bon-Vin - Spécialités de Fondues et cuisine Suisse",
      "lat": 46.202855,
      "lng": 6.156388,
      "ornamentId": "ap1",
      "guid": "531f32cd0d083c759575d7eb32c668ac.16"
    },
    {
      "title": "Vigneron",
      "lat": 46.203007,
      "lng": 6.159195,
      "ornamentId": "ap1",
      "guid": "1fe2eb3d913d4c8e96a273cd7a87a4bb.16"
    },
    {
      "title": "La Tourterelle",
      "lat": 46.203631,
      "lng": 6.164161,
      "ornamentId": "ap1",
      "guid": "189e0702137b4a57994a2d41be38454b.16"
    },
    {
      "title": "Fontaine en demi-cercle",
      "lat": 46.205003,
      "lng": 6.162171,
      "ornamentId": "ap1",
      "guid": "16fdd436823a4f21ba945bd8b0aeb47b.16"
    },
    {
      "title": "Pierre Fatio 1662-1707",
      "lat": 46.203265,
      "lng": 6.154333,
      "ornamentId": "ap1",
      "guid": "decd6662a2404bac8faa23c8d1b254c0.16"
    },
    {
      "title": "L'arbre Aux Animaux",
      "lat": 46.203936,
      "lng": 6.16375,
      "ornamentId": "ap1",
      "guid": "1a2e317394e345e2a72f43f224dd7d8e.16"
    },
    {
      "title": "Restaurant-pizzeria du Jet D'Eau",
      "lat": 46.205247,
      "lng": 6.160474,
      "ornamentId": "ap1",
      "guid": "5e01bbe968314c3782dacade321f7f69.16"
    },
    {
      "title": "Babel dans la nuit",
      "lat": 46.198828,
      "lng": 6.155585,
      "ornamentId": "ap1",
      "guid": "320c1926c5864b99a5b96f1a1b9199e9.16"
    },
    {
      "title": "Roger Ferrier",
      "lat": 46.199255,
      "lng": 6.159664,
      "ornamentId": "ap1",
      "guid": "593454d805fb4736aec7254ccefb4336.16"
    },
    {
      "title": "Gravure De Portique",
      "lat": 46.202897,
      "lng": 6.155948,
      "ornamentId": "ap1",
      "guid": "13da12e019ca49bfaf98a9c63cfa942d.16"
    },
    {
      "title": "Sculpture De Portique",
      "lat": 46.205605,
      "lng": 6.160709,
      "ornamentId": "ap1",
      "guid": "f1c88def91884294907b6155b5351f3b.16"
    },
    {
      "title": "Sculpture David Wynne 1985",
      "lat": 46.203322,
      "lng": 6.15554,
      "ornamentId": "ap1",
      "guid": "4c8af8b074b0471ca73e29361f85eab9.16"
    },
    {
      "title": "L’ange qui s’envole",
      "lat": 46.199712,
      "lng": 6.15523,
      "ornamentId": "ap1",
      "guid": "30da81dae5934ac28703e40505b7ba07.16"
    },
    {
      "title": "Fresque Des Vollandes",
      "lat": 46.203464,
      "lng": 6.162088,
      "ornamentId": "ap1",
      "guid": "db183d3496794d0bbd978eeee04eab9d.16"
    },
    {
      "title": "Sculpture Femme",
      "lat": 46.204005,
      "lng": 6.15936,
      "ornamentId": "ap1",
      "guid": "531e9f14443030a282014a0921a69188.16"
    },
    {
      "title": "Galeries Cimaise",
      "lat": 46.204502,
      "lng": 6.158643,
      "ornamentId": "ap1",
      "guid": "72676554599342d5a29cbbad731e3585.16"
    },
    {
      "title": "Fontaine Fatio",
      "lat": 46.203636,
      "lng": 6.154014,
      "ornamentId": "ap1",
      "guid": "75adbffef73b4dd79bf545108c8bfbd1.16"
    },
    {
      "title": "Immeuble Ancien",
      "lat": 46.205972,
      "lng": 6.160436,
      "ornamentId": "ap1",
      "guid": "7dbcea4c46f9442ab676f5b5b9bac8e1.16"
    },
    {
      "title": "House of Pandit Shyamji Krishnavarma 1914",
      "lat": 46.206089,
      "lng": 6.159477,
      "ornamentId": "ap1",
      "guid": "1a2df92bda1d4fc2b1488e142ba876d2.16"
    },
    {
      "title": "Le SPA",
      "lat": 46.206336,
      "lng": 6.161442,
      "ornamentId": "ap1",
      "guid": "e62a94a9be0a4a71983bdc952df63461.16"
    },
    {
      "title": "Face du 1er Juin",
      "lat": 46.206165,
      "lng": 6.161263,
      "ornamentId": "ap1",
      "guid": "14c131f0e0c04914ac7cda567bd8a7a7.16"
    },
    {
      "title": "Mascaron gargouille",
      "lat": 46.206802,
      "lng": 6.160572,
      "ornamentId": "ap1",
      "guid": "b0e3856836b93f3a9d0c7242de59cd59.16"
    },
    {
      "title": "Tour de la Grenade",
      "lat": 46.205857,
      "lng": 6.160836,
      "ornamentId": "ap1",
      "guid": "7e8704b83a724c289ff5ad2ffe8c1c7a.16"
    },
    {
      "title": "Vieil immeuble quai Ador",
      "lat": 46.206572,
      "lng": 6.160169,
      "ornamentId": "ap1",
      "guid": "3653841c4c9b4b8685f736f98c629cd4.16"
    },
    {
      "title": "Maison Royale",
      "lat": 46.206964,
      "lng": 6.160898,
      "ornamentId": "ap1",
      "guid": "8a91b3da6c254a0282068845679d9a55.16"
    },
    {
      "title": "Immeuble Ancien De La Rade",
      "lat": 46.207182,
      "lng": 6.16136,
      "ornamentId": "ap1",
      "guid": "341d43127b0c4478b8eadf77c3e6f5fa.16"
    },
    {
      "title": "Hans Leutenegger",
      "lat": 46.205962,
      "lng": 6.158832,
      "ornamentId": "ap1",
      "guid": "bb871843b021462983f5e3ed4f71b644.16"
    },
    {
      "title": "Mascaron floral 83",
      "lat": 46.206769,
      "lng": 6.162048,
      "ornamentId": "ap1",
      "guid": "eb54ab2980aa355c8119afdcf923127b.16"
    },
    {
      "title": "Henri Dunant",
      "lat": 46.201549,
      "lng": 6.144038,
      "ornamentId": "ap1",
      "guid": "ba8393f3c14b4b66b877fb94e40a7e18.16"
    },
    {
      "title": "Memorial Fountain",
      "lat": 46.202395,
      "lng": 6.14361,
      "ornamentId": "ap1",
      "guid": "b07b8414b5154d16abcf3816de00e7a9.16"
    },
    {
      "title": "Dame Piaget",
      "lat": 46.203058,
      "lng": 6.143431,
      "ornamentId": "ap1",
      "guid": "b444b7eb5437481d8bbee8bc8e238c6f.16"
    },
    {
      "title": "Fontaine du Grand-Mézel",
      "lat": 46.20231,
      "lng": 6.144641,
      "ornamentId": "ap1",
      "guid": "3001d440d2834df5a42e5b0f5a2a94e0.16"
    },
    {
      "title": "Fontaine De La Bibliothèque",
      "lat": 46.202805,
      "lng": 6.144907,
      "ornamentId": "ap1",
      "guid": "deea7b8048af41588e89368d65826346.16"
    },
    {
      "title": "Ferdinand de Saussure",
      "lat": 46.202563,
      "lng": 6.144411,
      "ornamentId": "ap1",
      "guid": "fa7d526af7e94e00921ada2768df9662.16"
    },
    {
      "title": "Passage des Degrés de Poules",
      "lat": 46.200879,
      "lng": 6.149347,
      "ornamentId": "ap1",
      "guid": "e1db9aae6f2841f69801a416ed7fd571.16"
    },
    {
      "title": "Plaque Bezanson Hugues",
      "lat": 46.204534,
      "lng": 6.143745,
      "ornamentId": "ap1",
      "guid": "32ecfb7579364a898772f80174905344.16"
    },
    {
      "title": "Fontaine Pargesa",
      "lat": 46.202486,
      "lng": 6.145179,
      "ornamentId": "ap1",
      "guid": "f48d71aee87d4e998c01b07f32fe32a1.16"
    },
    {
      "title": "Fontaine Bourg de Four",
      "lat": 46.200306,
      "lng": 6.149141,
      "ornamentId": "ap1",
      "guid": "8003b7f3ca7542509b52c7cefccd23be.16"
    },
    {
      "title": "Chapelle de la Pélisserie",
      "lat": 46.202144,
      "lng": 6.145754,
      "ornamentId": "ap1",
      "guid": "3358d00aa37c41bf9266654cf7f786e0.16"
    },
    {
      "title": "Place du Rhône",
      "lat": 46.20486,
      "lng": 6.146513,
      "ornamentId": "ap1",
      "guid": "c052951d380d4294b228e903b2d7b772.16"
    },
    {
      "title": "Fontaine de Bel-Air",
      "lat": 46.203737,
      "lng": 6.143768,
      "ornamentId": "ap1",
      "guid": "c38ccc8886f34cbe9470e46882b22d44.11"
    },
    {
      "title": "La portique à deux têtes",
      "lat": 46.202173,
      "lng": 6.145321,
      "ornamentId": "ap1",
      "guid": "19a6b6915b793edbbae42ccf3dd0c1cd.16"
    },
    {
      "title": "Fontaine Nez De Lipp",
      "lat": 46.203226,
      "lng": 6.145188,
      "ornamentId": "ap1",
      "guid": "3799525aad4c4a3a82d0f363e2ab3380.16"
    },
    {
      "title": "Maison Naissance J J Rousseau",
      "lat": 46.201432,
      "lng": 6.146637,
      "ornamentId": "ap1",
      "guid": "7cd16f7394b64166a0ffcd455c6d4863.16"
    },
    {
      "title": "Vieille Fontaine",
      "lat": 46.201857,
      "lng": 6.145884,
      "ornamentId": "ap1",
      "guid": "960b8f321ab943df8c9972259fc5ea01.16"
    },
    {
      "title": "Horace Benedict",
      "lat": 46.202413,
      "lng": 6.144107,
      "ornamentId": "ap1",
      "guid": "58b9b455028d47d2bb3efa76c7ade426.16"
    },
    {
      "title": "Rond-Point De Rive",
      "lat": 46.201694,
      "lng": 6.153508,
      "ornamentId": "ap1",
      "guid": "d289114e63784f0d8a7dc69f1ce5c64a.16"
    },
    {
      "title": "Rodolphe Töpffer",
      "lat": 46.198995,
      "lng": 6.15314,
      "ornamentId": "ap1",
      "guid": "50353fd2d4c24f658e7c79bc4298a6ac.12"
    },
    {
      "title": "François LeFort 1656-1699",
      "lat": 46.199115,
      "lng": 6.153707,
      "ornamentId": "ap1",
      "guid": "686e225a55fb4a8390da9806b2bcbc78.16"
    },
    {
      "title": "Ecusson de L'islande",
      "lat": 46.197328,
      "lng": 6.153881,
      "ornamentId": "ap1",
      "guid": "492c4a169deb4dbda3eca45b5774b234.16"
    },
    {
      "title": "Visage Gravé",
      "lat": 46.197761,
      "lng": 6.154395,
      "ornamentId": "ap1",
      "guid": "e3f81b11ab6f41bab2c8e9ba276d64bd.16"
    },
    {
      "title": "Le bon vieux temps",
      "lat": 46.203887,
      "lng": 6.143042,
      "ornamentId": "ap1",
      "guid": "2b45bbb90a8341bfa33e1b9e729f3df6.16"
    },
    {
      "title": "Oeuvre Castella 1990",
      "lat": 46.20305,
      "lng": 6.144584,
      "ornamentId": "ap1",
      "guid": "0ea4c6799bcd409e8fd3981fb55fd7c4.16"
    },
    {
      "title": "Passage des Lions",
      "lat": 46.20366,
      "lng": 6.144298,
      "ornamentId": "ap1",
      "guid": "6c2f6f835128494f88fb04705c7b8fe4.16"
    },
    {
      "title": "Bartholomé Tecia",
      "lat": 46.204443,
      "lng": 6.14284,
      "ornamentId": "ap1",
      "guid": "3aadd5aa0ea34799bf99b09678e77b81.16"
    },
    {
      "title": "Sculpture Maçons de la Cité",
      "lat": 46.203463,
      "lng": 6.143767,
      "ornamentId": "ap1",
      "guid": "41f5fa2d9c963851891fb3cb7a135c8d.16"
    },
    {
      "title": "Portail De L'église De La Madeleine",
      "lat": 46.202159,
      "lng": 6.149104,
      "ornamentId": "ap1",
      "guid": "01762e058cc146be91fbc16b2061ca75.16"
    },
    {
      "title": "Mémoire au bombardement de 1940",
      "lat": 46.20174,
      "lng": 6.149362,
      "ornamentId": "ap1",
      "guid": "275876ab859c3c41ae2afb91ec1807c0.16"
    },
    {
      "title": "Clock Tower",
      "lat": 46.202036,
      "lng": 6.149332,
      "ornamentId": "ap1",
      "guid": "ce4b00957cd84fd6ad432f9ca73f1961.16"
    },
    {
      "title": "Bat Fountain",
      "lat": 46.20198,
      "lng": 6.149683,
      "ornamentId": "ap1",
      "guid": "31bb2f2f2fdd410ba0701faf669f9672.16"
    },
    {
      "title": "Fondement (1984) par Alain Schaller",
      "lat": 46.2015,
      "lng": 6.1495,
      "ornamentId": "ap1",
      "guid": "81f2a1873af24ed19999a33bc222d978.12"
    },
    {
      "title": "Canons de l'Artillerie de Genève",
      "lat": 46.201219,
      "lng": 6.147166,
      "ornamentId": "ap1",
      "guid": "77651d543bb541a6a5f9a6db3fe27e71.16"
    },
    {
      "title": "Porche De L'hôtel De Ville",
      "lat": 46.20107,
      "lng": 6.146815,
      "ornamentId": "ap1",
      "guid": "8528a4be066a4951bd7ca2af9734daaf.16"
    },
    {
      "title": "Sculpture Perron IV",
      "lat": 46.202242,
      "lng": 6.147972,
      "ornamentId": "ap1",
      "guid": "321f0a729736445ca76a51f92c4391ad.12"
    },
    {
      "title": "Plan de ville",
      "lat": 46.202632,
      "lng": 6.147898,
      "ornamentId": "ap1",
      "guid": "c7957c6c87f2305e8e6eb22635dc3de7.16"
    },
    {
      "title": "Fresque Murale Bodiol",
      "lat": 46.202126,
      "lng": 6.147822,
      "ornamentId": "ap1",
      "guid": "d3c29333e22044c9a25f45f6df6ea622.16"
    },
    {
      "title": "Fontaine des Granges",
      "lat": 46.201333,
      "lng": 6.146206,
      "ornamentId": "ap1",
      "guid": "27188c2ac82a4a27bdada6a5b2fa34a3.16"
    },
    {
      "title": "Nikolaï Karamzine 1759-1790",
      "lat": 46.201563,
      "lng": 6.146369,
      "ornamentId": "ap1",
      "guid": "755c048cd2f94259a86f687245bc2623.16"
    },
    {
      "title": "Passage secret de Monetier",
      "lat": 46.201826,
      "lng": 6.147859,
      "ornamentId": "ap1",
      "guid": "7b36854e38e237e4be0c1e2623961f7e.16"
    },
    {
      "title": "salle centrale",
      "lat": 46.202203,
      "lng": 6.148646,
      "ornamentId": "ap1",
      "guid": "56d7d3a751e44a5785b025d36e08e360.16"
    },
    {
      "title": "François Simon 1917-1982",
      "lat": 46.20321,
      "lng": 6.143911,
      "ornamentId": "ap1",
      "guid": "13a9d630563943d8a58f18bc87e637be.16"
    },
    {
      "title": "José Rizal",
      "lat": 46.204446,
      "lng": 6.144061,
      "ornamentId": "ap1",
      "guid": "2b1dc72b5dca439bb77485dfc11c673a.16"
    },
    {
      "title": "Arche Belle Epoque",
      "lat": 46.204142,
      "lng": 6.144451,
      "ornamentId": "ap1",
      "guid": "ef4f61af564c43f1816e96d7105c3ac1.16"
    },
    {
      "title": "Swiss Family de Candolle",
      "lat": 46.20158,
      "lng": 6.14789,
      "ornamentId": "ap1",
      "guid": "b5baeb5d6e9444f8bc99348edbdbc02c.12"
    },
    {
      "title": "Blason rue du Perron",
      "lat": 46.201839,
      "lng": 6.14763,
      "ornamentId": "ap1",
      "guid": "335b9ded7ef143d79be774b09a5467a9.16"
    },
    {
      "title": "La cour de l'Hôtel de ville de",
      "lat": 46.200835,
      "lng": 6.146887,
      "ornamentId": "ap1",
      "guid": "c9d34e8584a4406eb477df6037690d1c.12"
    },
    {
      "title": "Pierre Fatio",
      "lat": 46.201729,
      "lng": 6.147488,
      "ornamentId": "ap1",
      "guid": "536fc45de5aa4ce78e05ecaa18ac17c4.11"
    },
    {
      "title": "Maison Tavel",
      "lat": 46.201426,
      "lng": 6.147145,
      "ornamentId": "ap1",
      "guid": "ed18eea947bb4108bd57e5bfe5e5e40c.16"
    },
    {
      "title": "Jorge Luis Borges",
      "lat": 46.201817,
      "lng": 6.146426,
      "ornamentId": "ap1",
      "guid": "229b879be39b4e14a67a8c929ff12393.16"
    },
    {
      "title": "Petite Fontaine de Longemalle",
      "lat": 46.20333,
      "lng": 6.150119,
      "ornamentId": "ap1",
      "guid": "070bf8f2d88f45939ff8f5c3b945a4b9.16"
    },
    {
      "title": "Fontaine de la Place du Port",
      "lat": 46.203764,
      "lng": 6.150301,
      "ornamentId": "ap1",
      "guid": "63e2302bafd54e31a44fc5c56819ed1d.16"
    },
    {
      "title": "Bubule Tournant",
      "lat": 46.20326,
      "lng": 6.152685,
      "ornamentId": "ap1",
      "guid": "def85f95d0934c169e9ba1045aa0da4c.16"
    },
    {
      "title": "Isaac Casaubon 1559-1614",
      "lat": 46.201126,
      "lng": 6.151695,
      "ornamentId": "ap1",
      "guid": "542bdb0567d041f283cf13725f9950af.16"
    },
    {
      "title": "Gravure Murale Rive",
      "lat": 46.201739,
      "lng": 6.151899,
      "ornamentId": "ap1",
      "guid": "66e9b960f0b745eb81a0367bf1e5dda5.16"
    },
    {
      "title": "Temple de la Fusterie",
      "lat": 46.20369,
      "lng": 6.145764,
      "ornamentId": "ap1",
      "guid": "00a00aa02f15479c924d51dac8008025.16"
    },
    {
      "title": "Porte de la Treille",
      "lat": 46.200878,
      "lng": 6.146716,
      "ornamentId": "ap1",
      "guid": "f0a517638cca49cd99208568e457c2bf.12"
    },
    {
      "title": "Théâtre de Poche",
      "lat": 46.201898,
      "lng": 6.145579,
      "ornamentId": "ap1",
      "guid": "fb1ab20e03774cc2959a9b61da868bef.16"
    },
    {
      "title": "Sculpture De Portique En Pierre",
      "lat": 46.203061,
      "lng": 6.15312,
      "ornamentId": "ap1",
      "guid": "1b0be3c30ff04f51aa1f6bc7c30d7a0b.16"
    },
    {
      "title": "La Clémence - Place du Bourg-de-Four - Clémentine",
      "lat": 46.200024,
      "lng": 6.149,
      "ornamentId": "ap1",
      "guid": "2fc37c74b7fc47ddac2d751818320138.12"
    },
    {
      "title": "Ground Wood Snake",
      "lat": 46.199548,
      "lng": 6.153703,
      "ornamentId": "ap1",
      "guid": "e766487a589e4525acf2c08de4cbb91e.16"
    },
    {
      "title": "Les Trois Travailleurs",
      "lat": 46.204001,
      "lng": 6.14926,
      "ornamentId": "ap1",
      "guid": "d0932df4a9664f22ab9b3a27c0602283.16"
    },
    {
      "title": "Tour Toboggan Treille",
      "lat": 46.200188,
      "lng": 6.146985,
      "ornamentId": "ap1",
      "guid": "974e09497e094f4493e9183bf0dd341c.16"
    },
    {
      "title": "Hermès sur un aigle",
      "lat": 46.204496,
      "lng": 6.145077,
      "ornamentId": "ap1",
      "guid": "16215dd5d88b4301a9d5238bc19a8009.16"
    },
    {
      "title": "François Liszt",
      "lat": 46.198958,
      "lng": 6.149361,
      "ornamentId": "ap1",
      "guid": "fbc88809873345f5939b82fd6350026c.16"
    },
    {
      "title": "Mirror Ball",
      "lat": 46.202625,
      "lng": 6.149914,
      "ornamentId": "ap1",
      "guid": "d988ea311ca84ad9b0f62b34d321abee.16"
    },
    {
      "title": "Jules-Guillaume Fick et G.H. Dufour",
      "lat": 46.19927,
      "lng": 6.149425,
      "ornamentId": "ap1",
      "guid": "829b550eeeb74965b9036e6dfd7a8abc.16"
    },
    {
      "title": "Les bulbes de l'église orthodo",
      "lat": 46.198741,
      "lng": 6.153609,
      "ornamentId": "ap1",
      "guid": "22e69d7466864499b798e66ed080a95f.12"
    },
    {
      "title": "George ELIOT (Miss Evans)",
      "lat": 46.202201,
      "lng": 6.146035,
      "ornamentId": "ap1",
      "guid": "01ec10e5a14145ff9e0f399ef87bc947.12"
    },
    {
      "title": "Fontaine de la HEAD",
      "lat": 46.198834,
      "lng": 6.150792,
      "ornamentId": "ap1",
      "guid": "6fb2e9e91aa44fe4997897040bcdcd76.16"
    },
    {
      "title": "Chapelle De St. Léger",
      "lat": 46.199156,
      "lng": 6.148061,
      "ornamentId": "ap1",
      "guid": "34f1ea6350af4bdfb7221db64d812a7b.16"
    },
    {
      "title": "Arche Gravée Bellot",
      "lat": 46.198402,
      "lng": 6.152129,
      "ornamentId": "ap1",
      "guid": "91d32e6dd1c6445fb5b7451c8f8af883.16"
    },
    {
      "title": "Immeuble rue Croix D'or",
      "lat": 46.202717,
      "lng": 6.148366,
      "ornamentId": "ap1",
      "guid": "9fd1cf4fb39c4dcfaa26b429b3686622.16"
    },
    {
      "title": "Fontaine Ocean",
      "lat": 46.201565,
      "lng": 6.145936,
      "ornamentId": "ap1",
      "guid": "149f1cc576344aaab69e3d277744fe92.16"
    },
    {
      "title": "La Fontaine De Lierre",
      "lat": 46.199652,
      "lng": 6.148931,
      "ornamentId": "ap1",
      "guid": "c27cc42f9f674e1a8a520b3a787f57e2.16"
    },
    {
      "title": "Musée d'art et d'histoire de Genève",
      "lat": 46.19941,
      "lng": 6.151649,
      "ornamentId": "ap1",
      "guid": "f54b2f0a81994a7b85da4b0e7e96f8f1.12"
    },
    {
      "title": "En Commemoration",
      "lat": 46.200657,
      "lng": 6.146506,
      "ornamentId": "ap1",
      "guid": "60eba1d89580381b9bb103395f2bf035.16"
    },
    {
      "title": "Old Time Promenade",
      "lat": 46.198788,
      "lng": 6.149528,
      "ornamentId": "ap1",
      "guid": "d94b298984fc4e9da02f561568b2a7a2.16"
    },
    {
      "title": "Auditoire de Calvin",
      "lat": 46.200799,
      "lng": 6.148189,
      "ornamentId": "ap1",
      "guid": "76af0bcc11753168b5b1bebaf6c3d096.16"
    },
    {
      "title": "Fontaine Double Bassins",
      "lat": 46.199517,
      "lng": 6.148249,
      "ornamentId": "ap1",
      "guid": "51056dbfec3b4ed8b90e5ffc865c9f91.16"
    },
    {
      "title": "Jean Capodistrias",
      "lat": 46.200368,
      "lng": 6.147622,
      "ornamentId": "ap1",
      "guid": "c303cfbdddfb4790a2650f0f728fef40.16"
    },
    {
      "title": "Lion Gravé",
      "lat": 46.198041,
      "lng": 6.153663,
      "ornamentId": "ap1",
      "guid": "49a3cb4354cd4461b24d43ece87a512f.16"
    },
    {
      "title": "Statue de le Fort, Geneva",
      "lat": 46.198019,
      "lng": 6.152574,
      "ornamentId": "ap1",
      "guid": "0a8e49c2702b420da870da99184381c5.11"
    },
    {
      "title": "Cathedrale de Genève",
      "lat": 46.201105,
      "lng": 6.148731,
      "ornamentId": "ap1",
      "guid": "6e94ec36e5074a2eb096513aa7a02263.12"
    },
    {
      "title": "Clémentine",
      "lat": 46.200027,
      "lng": 6.149111,
      "ornamentId": "ap1",
      "guid": "a69a43c5c10e4825985460539d29e56e.12"
    },
    {
      "title": "Fontaine EJD",
      "lat": 46.201072,
      "lng": 6.15305,
      "ornamentId": "ap1",
      "guid": "e10385d7471145e3b8a4e88d3932bd6d.16"
    },
    {
      "title": "Charles Bonnet",
      "lat": 46.202868,
      "lng": 6.147665,
      "ornamentId": "ap1",
      "guid": "5bbd9dea7409428ba5acef471f8f0420.16"
    },
    {
      "title": "Gondebaud, roi des burgondes",
      "lat": 46.200046,
      "lng": 6.149422,
      "ornamentId": "ap1",
      "guid": "fa4fff6ab3b13a148ac5bef79be165e6.16"
    },
    {
      "title": "Sismodi J. Ch. L.",
      "lat": 46.199771,
      "lng": 6.14934,
      "ornamentId": "ap1",
      "guid": "af46f1c5dff23dbdad619fe6ddbb4712.16"
    },
    {
      "title": "La societe hippique de l'Etrier",
      "lat": 46.199748,
      "lng": 6.148021,
      "ornamentId": "ap1",
      "guid": "86e637e8f509336c9c93122a6fab752e.16"
    },
    {
      "title": "Bibliothèque De La Cite",
      "lat": 46.202862,
      "lng": 6.14521,
      "ornamentId": "ap1",
      "guid": "955ef3ad4a53426ea4bfb312c508d444.16"
    },
    {
      "title": "1888 College Calvin Sud",
      "lat": 46.200524,
      "lng": 6.151095,
      "ornamentId": "ap1",
      "guid": "fc02701f9fcc46d7b526fa76a315fd1d.16"
    },
    {
      "title": "Mosaic d'Enfer",
      "lat": 46.20234,
      "lng": 6.149164,
      "ornamentId": "ap1",
      "guid": "3b4e2f9098693f1f88f05c3ccc57ddf1.16"
    },
    {
      "title": "A Jean de Toledo",
      "lat": 46.204622,
      "lng": 6.148135,
      "ornamentId": "ap1",
      "guid": "b4600448b89a4cd2a468a032b1bcb5fa.16"
    },
    {
      "title": "Sculpture Pliée",
      "lat": 46.20432,
      "lng": 6.149831,
      "ornamentId": "ap1",
      "guid": "51f3d957ac88409fa354ae2e6540914f.16"
    },
    {
      "title": "Fontaine Lion",
      "lat": 46.201126,
      "lng": 6.149102,
      "ornamentId": "ap1",
      "guid": "727332048ec94329ba7c8ed1841bfb20.16"
    },
    {
      "title": "Dance with the Crocodile",
      "lat": 46.199146,
      "lng": 6.151336,
      "ornamentId": "ap1",
      "guid": "879ad3702a6e37c79a83ab635590c15f.16"
    },
    {
      "title": "François de Versonnex",
      "lat": 46.202213,
      "lng": 6.15235,
      "ornamentId": "ap1",
      "guid": "2fe6c05a4f3b3238be7ffe01db5897be.16"
    },
    {
      "title": "Vase Le Fort",
      "lat": 46.198195,
      "lng": 6.152811,
      "ornamentId": "ap1",
      "guid": "373b3e838d0d4b73bb58fa36af7c6b02.16"
    },
    {
      "title": "Tour De Verre",
      "lat": 46.1997,
      "lng": 6.151059,
      "ornamentId": "ap1",
      "guid": "2578946400144d7b9329fff95f3b6b5a.16"
    },
    {
      "title": "La Poste - Office Des Vieux Collèges",
      "lat": 46.201943,
      "lng": 6.150239,
      "ornamentId": "ap1",
      "guid": "29cae449ae7244889cfaf984521dadf4.16"
    },
    {
      "title": "Ecusson Suisse",
      "lat": 46.202622,
      "lng": 6.15356,
      "ornamentId": "ap1",
      "guid": "d130f309342e37278177263565e9a19c.16"
    },
    {
      "title": "Porte de la chapelle des Macch",
      "lat": 46.201052,
      "lng": 6.148122,
      "ornamentId": "ap1",
      "guid": "3477ee615fc842ba9395a10e567d6f07.12"
    },
    {
      "title": "Nef et voûtes de la cathédrale",
      "lat": 46.201108,
      "lng": 6.148486,
      "ornamentId": "ap1",
      "guid": "206b5b73aa314255b5d513b2f2b94c2d.12"
    },
    {
      "title": "Batiment Ancien",
      "lat": 46.197994,
      "lng": 6.152207,
      "ornamentId": "ap1",
      "guid": "fb8d4c49d9ac4d998c196ef61f6ba9d0.16"
    },
    {
      "title": "Horloge Breguet 1775",
      "lat": 46.20436,
      "lng": 6.146522,
      "ornamentId": "ap1",
      "guid": "e95042ffe4d844a0ada79e7c322151ba.16"
    },
    {
      "title": "Maison De Pierre François Bellot",
      "lat": 46.198782,
      "lng": 6.152572,
      "ornamentId": "ap1",
      "guid": "9841ae2d93dd40b29f5c8b5d53e145e6.16"
    },
    {
      "title": "Femme du toit",
      "lat": 46.203257,
      "lng": 6.146909,
      "ornamentId": "ap1",
      "guid": "e586e83d68ec48408d0bcdf91b8025f4.16"
    },
    {
      "title": "L.L. Zemenhof",
      "lat": 46.201467,
      "lng": 6.151446,
      "ornamentId": "ap1",
      "guid": "7821fc63d1e9468a83f46bd6a2dc057c.16"
    },
    {
      "title": "Arche de la Head",
      "lat": 46.19869,
      "lng": 6.151326,
      "ornamentId": "ap1",
      "guid": "4235472690784e018b2ce8910d49936c.16"
    },
    {
      "title": "Klima",
      "lat": 46.200212,
      "lng": 6.149649,
      "ornamentId": "ap1",
      "guid": "fed6438918ba478fb6a442a7ea8322d3.16"
    },
    {
      "title": "Architecture Moderne",
      "lat": 46.20267,
      "lng": 6.146958,
      "ornamentId": "ap1",
      "guid": "90b5dc545fb9440caca87735a9fa8d05.16"
    },
    {
      "title": "A la mémoire de F. Hodler",
      "lat": 46.198179,
      "lng": 6.149954,
      "ornamentId": "ap1",
      "guid": "b6b4e97bb6004c04baf7730d1c657018.16"
    },
    {
      "title": "Edouard Sayous",
      "lat": 46.202371,
      "lng": 6.146764,
      "ornamentId": "ap1",
      "guid": "3f63745998c74cc8b3d73e6f7d3100a5.16"
    },
    {
      "title": "Robert A Ceard",
      "lat": 46.200082,
      "lng": 6.148502,
      "ornamentId": "ap1",
      "guid": "439a017b6e3f3d85985f8e6692d350c2.16"
    },
    {
      "title": "Fontaine Robert Estienne",
      "lat": 46.202926,
      "lng": 6.151944,
      "ornamentId": "ap1",
      "guid": "bca45054395f4c66a3629ea7fdb3d54a.16"
    },
    {
      "title": "Neptune",
      "lat": 46.201654,
      "lng": 6.149017,
      "ornamentId": "ap1",
      "guid": "11a4fc6b3e0845fbb16b5783370b8229.16"
    },
    {
      "title": "Pommier",
      "lat": 46.201671,
      "lng": 6.146954,
      "ornamentId": "ap1",
      "guid": "0cea9151586c4b1c9ccf8ceff4db96e7.16"
    },
    {
      "title": "Bibliothèque d'art et d'archéologie",
      "lat": 46.198347,
      "lng": 6.150525,
      "ornamentId": "ap1",
      "guid": "3aaf37cc77b444efab40d6aec805b089.16"
    },
    {
      "title": "Pictet de Rochemont",
      "lat": 46.200728,
      "lng": 6.146259,
      "ornamentId": "ap1",
      "guid": "aae4e8af3c084228a6b25e0185daef85.12"
    },
    {
      "title": "Head Genève",
      "lat": 46.19851,
      "lng": 6.151116,
      "ornamentId": "ap1",
      "guid": "859d0f0082f742589a7feffe0fbda8f9.16"
    },
    {
      "title": "Fontaine De La Petite Fusterie",
      "lat": 46.204729,
      "lng": 6.145344,
      "ornamentId": "ap1",
      "guid": "dddefe9e836f439bbc0d76f592a5da40.16"
    },
    {
      "title": "Borne Vieux Genève",
      "lat": 46.204843,
      "lng": 6.145289,
      "ornamentId": "ap1",
      "guid": "6d087f87d6824377a043ba7fd92db1af.16"
    },
    {
      "title": "La Paix",
      "lat": 46.203504,
      "lng": 6.151559,
      "ornamentId": "ap1",
      "guid": "ffaaae91e9a1434d8754e74cd19beea4.11"
    },
    {
      "title": "Peinture Fleurie",
      "lat": 46.20464,
      "lng": 6.149208,
      "ornamentId": "ap1",
      "guid": "d4e1d19e725d423284f72600226a1a5d.16"
    },
    {
      "title": "Horloge Passage Malbuisson",
      "lat": 46.203789,
      "lng": 6.146405,
      "ornamentId": "ap1",
      "guid": "767df241cbe94c4d901826310eb677d5.16"
    },
    {
      "title": "La trompette de la renommée de",
      "lat": 46.199411,
      "lng": 6.151653,
      "ornamentId": "ap1",
      "guid": "c37e8530b4454ca582c77277c1e69ef5.12"
    },
    {
      "title": "Cathédrale st Pierre de Genève",
      "lat": 46.201247,
      "lng": 6.148076,
      "ornamentId": "ap1",
      "guid": "6e82382145db4aaf8756d774e159cb31.12"
    },
    {
      "title": "Cariatides Rhone",
      "lat": 46.202962,
      "lng": 6.153619,
      "ornamentId": "ap1",
      "guid": "6099981a82944c0495453b164cc1395f.16"
    },
    {
      "title": "Maison de Cavour",
      "lat": 46.201775,
      "lng": 6.144787,
      "ornamentId": "ap1",
      "guid": "b9e4b07291a5471287d5298508ccb905.16"
    },
    {
      "title": "Mosaïque dorée du Soleil-Levant",
      "lat": 46.200942,
      "lng": 6.147901,
      "ornamentId": "ap1",
      "guid": "b62f96c13f0d3919b2238376efb93938.16"
    },
    {
      "title": "Palais De Justice",
      "lat": 46.200283,
      "lng": 6.15032,
      "ornamentId": "ap1",
      "guid": "12ad4f99901e471080aced7d9b0de13a.16"
    },
    {
      "title": "Rodolphe Töpffer",
      "lat": 46.201245,
      "lng": 6.147599,
      "ornamentId": "ap1",
      "guid": "a2f3240c70cc334490a716f0251ef41f.16"
    },
    {
      "title": "Fontaine Hiboux",
      "lat": 46.200932,
      "lng": 6.151456,
      "ornamentId": "ap1",
      "guid": "c2bf6217643e4a2dad8440d3fa1f9514.16"
    },
    {
      "title": "Sculptures Murales",
      "lat": 46.198748,
      "lng": 6.152964,
      "ornamentId": "ap1",
      "guid": "f3ca903b519c4af09851cbffc0fd9909.16"
    },
    {
      "title": "Le Thermomètre",
      "lat": 46.203229,
      "lng": 6.149436,
      "ornamentId": "ap1",
      "guid": "eef5e2690e5148a2b417dd480382a3bc.16"
    },
    {
      "title": "Fontaine sous Calvin",
      "lat": 46.200968,
      "lng": 6.150361,
      "ornamentId": "ap1",
      "guid": "1859c92f14344e27be6cfed0cdc76216.16"
    },
    {
      "title": "Armée Du Salut",
      "lat": 46.201543,
      "lng": 6.150636,
      "ornamentId": "ap1",
      "guid": "c662184f5a854c82a276e70e7a200b3e.16"
    },
    {
      "title": "Celestial Sphere",
      "lat": 46.204539,
      "lng": 6.14854,
      "ornamentId": "ap1",
      "guid": "c974229de5f140d590facd870fe71694.16"
    },
    {
      "title": "Genève - Chœur de la Cathédrale St-Pierre",
      "lat": 46.201011,
      "lng": 6.148744,
      "ornamentId": "ap1",
      "guid": "70f0bbdce35d48eea7a4c9855460bea7.12"
    },
    {
      "title": "Fontaine dans sa propre rue",
      "lat": 46.201173,
      "lng": 6.149908,
      "ornamentId": "ap1",
      "guid": "af769bf38acc4307b626c0f99ddeca7b.16"
    },
    {
      "title": "Horloge du Coin",
      "lat": 46.199909,
      "lng": 6.148389,
      "ornamentId": "ap1",
      "guid": "fc2ef38984cb4f0a971e05f431bc1891.16"
    },
    {
      "title": "Post Tenebras Lux",
      "lat": 46.204047,
      "lng": 6.147966,
      "ornamentId": "ap1",
      "guid": "94921cdf71a44738a5b0d9ea388c7afb.16"
    },
    {
      "title": "Eglise Saint-Germain",
      "lat": 46.201424,
      "lng": 6.145739,
      "ornamentId": "ap1",
      "guid": "334af78b82c14ddcac72eb6aa51e6456.16"
    },
    {
      "title": "Union Chrétienne",
      "lat": 46.201909,
      "lng": 6.147046,
      "ornamentId": "ap1",
      "guid": "1892d7cde9b4491685be317cfc80a45b.16"
    },
    {
      "title": "La fontaine de la Treille",
      "lat": 46.200519,
      "lng": 6.146788,
      "ornamentId": "ap1",
      "guid": "77998f7d477f4509beb639e366df3bff.16"
    },
    {
      "title": "Tabazan",
      "lat": 46.198989,
      "lng": 6.149083,
      "ornamentId": "ap1",
      "guid": "7b8f066c80fd4f4399196ceb502ac57c.16"
    },
    {
      "title": "Grande moulure du Molard",
      "lat": 46.203576,
      "lng": 6.147851,
      "ornamentId": "ap1",
      "guid": "f2063ea0ac5248af8e3d50cbdf358ba0.16"
    },
    {
      "title": "Fontaine du Molard",
      "lat": 46.203069,
      "lng": 6.147722,
      "ornamentId": "ap1",
      "guid": "9cf7b34daf1b4325b3fc67b4725c7721.11"
    },
    {
      "title": "Fontaine de la Fusterie",
      "lat": 46.204183,
      "lng": 6.146235,
      "ornamentId": "ap1",
      "guid": "d42bdab4adca44e09fb9f2dbb6454c49.16"
    },
    {
      "title": "Premiere Migros A Geneve",
      "lat": 46.203123,
      "lng": 6.150881,
      "ornamentId": "ap1",
      "guid": "93f0fd23cc5a41e48149e8718b0e7818.16"
    },
    {
      "title": "Plaque Murale",
      "lat": 46.200342,
      "lng": 6.148004,
      "ornamentId": "ap1",
      "guid": "21f936450b2c40d5863c29d19e8c448b.16"
    },
    {
      "title": "Patek Philippe - Manufacture D'Horlogerie",
      "lat": 46.203787,
      "lng": 6.149579,
      "ornamentId": "ap1",
      "guid": "b36d173be60b49cd9d7a87f78d0e3364.16"
    },
    {
      "title": "Hotel de Longemalle",
      "lat": 46.202996,
      "lng": 6.15002,
      "ornamentId": "ap1",
      "guid": "97b78c8251754d73b9d21f193331b072.11"
    },
    {
      "title": "Rodolphe Kreutzer",
      "lat": 46.199554,
      "lng": 6.150066,
      "ornamentId": "ap1",
      "guid": "ca308889385840e298d626aecd400cde.16"
    },
    {
      "title": "Place de Jeux",
      "lat": 46.199521,
      "lng": 6.153337,
      "ornamentId": "ap1",
      "guid": "2ff33390f2ec302c8a45f93355dc5eba.16"
    },
    {
      "title": "Tableau Porte de la Treille",
      "lat": 46.199775,
      "lng": 6.14754,
      "ornamentId": "ap1",
      "guid": "7f4b5630fbc8442c9a6b1ff28816e81f.16"
    },
    {
      "title": "Le Non-Oui",
      "lat": 46.204657,
      "lng": 6.146471,
      "ornamentId": "ap1",
      "guid": "dbb165526bc54ba9962cefeb3774e692.16"
    },
    {
      "title": "Maison d'Ernest Ansermet",
      "lat": 46.198626,
      "lng": 6.152422,
      "ornamentId": "ap1",
      "guid": "e58889225dda485e86521defbc7b507d.16"
    },
    {
      "title": "Hommage à Ardutius De Faucigny",
      "lat": 46.202486,
      "lng": 6.152189,
      "ornamentId": "ap1",
      "guid": "048e964ae9f14fadb2764f256f166811.16"
    },
    {
      "title": "Jean Calvin",
      "lat": 46.202086,
      "lng": 6.146667,
      "ornamentId": "ap1",
      "guid": "57ceaf2a50b140c3a817e08bdd3d1a0e.16"
    },
    {
      "title": "Lombard Odier Bank",
      "lat": 46.202868,
      "lng": 6.143546,
      "ornamentId": "ap1",
      "guid": "3fd0942f2f514dea82b2a2ee291a280f.16"
    },
    {
      "title": "Fontaine Beauregard",
      "lat": 46.198629,
      "lng": 6.148259,
      "ornamentId": "ap1",
      "guid": "db8e847103884acf8319044bd94e07e7.11"
    },
    {
      "title": "Maison de naissance d'Albert Gallatin",
      "lat": 46.201592,
      "lng": 6.145122,
      "ornamentId": "ap1",
      "guid": "e07abd7d98ee4f449807bb424a7864d9.16"
    },
    {
      "title": "Jeremie Par Rodo",
      "lat": 46.201077,
      "lng": 6.147698,
      "ornamentId": "ap1",
      "guid": "bb495329be05489bb4e28ed68f350c91.16"
    },
    {
      "title": "Jean Etienne Liotard",
      "lat": 46.200202,
      "lng": 6.150047,
      "ornamentId": "ap1",
      "guid": "e6e19fc43094480b861174b9e300c197.16"
    },
    {
      "title": "Verrière",
      "lat": 46.200617,
      "lng": 6.15191,
      "ornamentId": "ap1",
      "guid": "dbd41907fcd5461199d605fe629ac901.16"
    },
    {
      "title": "Chapelle de l’Oratoire Evangelique",
      "lat": 46.199031,
      "lng": 6.148671,
      "ornamentId": "ap1",
      "guid": "e6b10069ba2f37ad8181298b46387386.16"
    },
    {
      "title": "Sculptures sous balcons",
      "lat": 46.202744,
      "lng": 6.149001,
      "ornamentId": "ap1",
      "guid": "291f362cda7d4d7f8193758b47fd409f.16"
    },
    {
      "title": "Musée International De La Réforme",
      "lat": 46.201454,
      "lng": 6.148453,
      "ornamentId": "ap1",
      "guid": "1a38b929fac34f12925d07ea3d529625.16"
    },
    {
      "title": "Alhambra theater",
      "lat": 46.202791,
      "lng": 6.146351,
      "ornamentId": "ap1",
      "guid": "0fc1a0fe6855446988c6f1b7badb58ba.16"
    },
    {
      "title": "Rolex Clock",
      "lat": 46.203699,
      "lng": 6.149968,
      "ornamentId": "ap1",
      "guid": "9f062a758d4b3ded8157195072214cad.16"
    },
    {
      "title": "Tour du Molard",
      "lat": 46.20396,
      "lng": 6.14811,
      "ornamentId": "ap1",
      "guid": "4b1c47af9e2b41b4a63b3264df40a918.11"
    },
    {
      "title": "Evangelical Lutheran Church of Geneva",
      "lat": 46.201111,
      "lng": 6.149623,
      "ornamentId": "ap1",
      "guid": "a4d1b2d32b1334e9b4149718b42c1f93.16"
    },
    {
      "title": "Borne Les bébés",
      "lat": 46.20204,
      "lng": 6.152141,
      "ornamentId": "ap1",
      "guid": "23ae77233d6a42758e1b645d1fa4e2bf.16"
    },
    {
      "title": "Fontaine Du Lion",
      "lat": 46.199467,
      "lng": 6.150408,
      "ornamentId": "ap1",
      "guid": "05cc01a03d174fdb99e9c95c5dd90fe3.16"
    },
    {
      "title": "Fontaine Potable Le Fort",
      "lat": 46.198422,
      "lng": 6.153068,
      "ornamentId": "ap1",
      "guid": "2fbbe2bbbad145bebc9f3b28b2ef973f.16"
    },
    {
      "title": "Petit Palais",
      "lat": 46.197771,
      "lng": 6.150859,
      "ornamentId": "ap1",
      "guid": "ceb3ac7bc10240288a36c89e21740b1a.16"
    },
    {
      "title": "Façade Ornemental XIX siècle",
      "lat": 46.197921,
      "lng": 6.151428,
      "ornamentId": "ap1",
      "guid": "b960b304949040b187cdc059feda30d9.16"
    },
    {
      "title": "Vase Geant",
      "lat": 46.197685,
      "lng": 6.152079,
      "ornamentId": "ap1",
      "guid": "850acad8b8af4f5380e4619cdf6e8ed7.16"
    },
    {
      "title": "Ancienne Porte En Bois",
      "lat": 46.197546,
      "lng": 6.150715,
      "ornamentId": "ap1",
      "guid": "5a825e071d4f46229b8be87d67e88b31.16"
    },
    {
      "title": "Museum Fondation Baur",
      "lat": 46.197652,
      "lng": 6.153476,
      "ornamentId": "ap1",
      "guid": "7365def6a613424ead147966eb9be7d9.16"
    },
    {
      "title": "Libraire Droz",
      "lat": 46.196889,
      "lng": 6.151556,
      "ornamentId": "ap1",
      "guid": "e7e332fea42f4f91874735543508cb16.16"
    },
    {
      "title": "Bâtiment Historique",
      "lat": 46.197527,
      "lng": 6.152509,
      "ornamentId": "ap1",
      "guid": "aaaeebabf4104e13b12d2c921d9aa6d5.16"
    },
    {
      "title": "Fontaine des Tranchées - Genève",
      "lat": 46.197021,
      "lng": 6.153236,
      "ornamentId": "ap1",
      "guid": "dd9ff2b0306d4126887aa4e6e11b63b4.16"
    },
    {
      "title": "Marcelle Moynier 1888-1980",
      "lat": 46.197382,
      "lng": 6.152775,
      "ornamentId": "ap1",
      "guid": "42913dfc4d7c4e1aa9e24cfd8a01443b.16"
    },
    {
      "title": "Museum Fondation Baur",
      "lat": 46.197398,
      "lng": 6.153391,
      "ornamentId": "ap1",
      "guid": "c35119d5d48c4b96807e11ca8943f026.16"
    },
    {
      "title": "Conservatoire Populaire",
      "lat": 46.197185,
      "lng": 6.151077,
      "ornamentId": "ap1",
      "guid": "06ee277a5d574406ad2d94898b178e99.16"
    },
    {
      "title": "Coffret Éclairage Public",
      "lat": 46.197346,
      "lng": 6.15206,
      "ornamentId": "ap1",
      "guid": "bd6bb4c7942949b1a9c29324355cb1d3.16"
    },
    {
      "title": "Tour du Petit Palais",
      "lat": 46.197675,
      "lng": 6.151132,
      "ornamentId": "ap1",
      "guid": "97d6a2a4451f4d3da2e91fbc23ac6d0c.16"
    },
    {
      "title": "Portique St-Victor",
      "lat": 46.196938,
      "lng": 6.152244,
      "ornamentId": "ap1",
      "guid": "09f2cd87f0224ffd8b7076ca896916ea.16"
    },
    {
      "title": "Véranda Mosaïque",
      "lat": 46.197138,
      "lng": 6.152357,
      "ornamentId": "ap1",
      "guid": "743d9a6be36943fe908fd48e2a54814b.16"
    },
    {
      "title": "Portique Art Deco",
      "lat": 46.197801,
      "lng": 6.153301,
      "ornamentId": "ap1",
      "guid": "9ebe3f42685e44709fdb77e2f2897917.16"
    },
    {
      "title": "Fontaine Sur la Colline",
      "lat": 46.197894,
      "lng": 6.149603,
      "ornamentId": "ap1",
      "guid": "aa2938966a6e4b26949cbf4faf5bd5f8.16"
    }
  ]
}