{
  "siteId": "2026-orion-prague",
  "exportedAt": 1778196457,
  "portals": [
    {
      "title": "Hlavy na věži",
      "lat": 50.08843,
      "lng": 14.416224,
      "ornamentId": "ap1"
    },
    {
      "title": "Teufelsfratze",
      "lat": 50.084255,
      "lng": 14.413548,
      "ornamentId": "ap1"
    },
    {
      "title": "Prague Beer Museum",
      "lat": 50.085004,
      "lng": 14.414053,
      "ornamentId": "ap1"
    },
    {
      "title": "Myslbekova busta",
      "lat": 50.084958,
      "lng": 14.413917,
      "ornamentId": "ap1"
    },
    {
      "title": "Věrni Zůstaneme",
      "lat": 50.088965,
      "lng": 14.415826,
      "ornamentId": "ap1"
    },
    {
      "title": "Jan Palach",
      "lat": 50.089164,
      "lng": 14.415949,
      "ornamentId": "ap1"
    },
    {
      "title": "1 Or 2 Or 3",
      "lat": 50.08915,
      "lng": 14.435044,
      "ornamentId": "ap1"
    },
    {
      "title": "Sedící Muž",
      "lat": 50.084611,
      "lng": 14.414915,
      "ornamentId": "ap1"
    },
    {
      "title": "Antičtí milenci",
      "lat": 50.087358,
      "lng": 14.414956,
      "ornamentId": "ap1"
    },
    {
      "title": "Ulysse",
      "lat": 50.083563,
      "lng": 14.421279,
      "ornamentId": "ap1"
    },
    {
      "title": "Stavovské Divadlo",
      "lat": 50.08588,
      "lng": 14.423434,
      "ornamentId": "ap1"
    },
    {
      "title": "Spier Guy High",
      "lat": 50.086032,
      "lng": 14.422652,
      "ornamentId": "ap1"
    },
    {
      "title": "Alois Senefelder",
      "lat": 50.084302,
      "lng": 14.421514,
      "ornamentId": "ap1"
    },
    {
      "title": "Market Fresque",
      "lat": 50.084706,
      "lng": 14.421118,
      "ornamentId": "ap1"
    },
    {
      "title": "Galerie Vavryš",
      "lat": 50.084291,
      "lng": 14.420871,
      "ornamentId": "ap1"
    },
    {
      "title": "Život na vesnici",
      "lat": 50.083918,
      "lng": 14.428164,
      "ornamentId": "ap1"
    },
    {
      "title": "Deer Rezistance",
      "lat": 50.08406,
      "lng": 14.427892,
      "ornamentId": "ap1"
    },
    {
      "title": "Rohový dům s prosklenými balkóny",
      "lat": 50.083696,
      "lng": 14.428222,
      "ornamentId": "ap1"
    },
    {
      "title": "Zlate W",
      "lat": 50.084869,
      "lng": 14.421325,
      "ornamentId": "ap1"
    },
    {
      "title": "Amphora",
      "lat": 50.084158,
      "lng": 14.428536,
      "ornamentId": "ap1"
    },
    {
      "title": "Erb",
      "lat": 50.084061,
      "lng": 14.428823,
      "ornamentId": "ap1"
    },
    {
      "title": "Immeuble Ocre",
      "lat": 50.084568,
      "lng": 14.429122,
      "ornamentId": "ap1"
    },
    {
      "title": "The Arch and Fountain",
      "lat": 50.086254,
      "lng": 14.423699,
      "ornamentId": "ap1"
    },
    {
      "title": "Černá Panna Maria na domě v Perlové",
      "lat": 50.083806,
      "lng": 14.420759,
      "ornamentId": "ap1"
    },
    {
      "title": "Two Headed Bird Sign",
      "lat": 50.084078,
      "lng": 14.421099,
      "ornamentId": "ap1"
    },
    {
      "title": "Madarke Kulturni stredisko - Magyar Kulturális Központ",
      "lat": 50.084602,
      "lng": 14.421595,
      "ornamentId": "ap1"
    },
    {
      "title": "Dům U Zlatého Kříže Memorial",
      "lat": 50.084149,
      "lng": 14.420407,
      "ornamentId": "ap1"
    },
    {
      "title": "Mucha museum",
      "lat": 50.084236,
      "lng": 14.427696,
      "ornamentId": "ap1"
    },
    {
      "title": "Muž držící lampu",
      "lat": 50.084376,
      "lng": 14.427463,
      "ornamentId": "ap1"
    },
    {
      "title": "Muro pintado en el patio de un",
      "lat": 50.084188,
      "lng": 14.42728,
      "ornamentId": "ap1"
    },
    {
      "title": "Myslbek OC",
      "lat": 50.085664,
      "lng": 14.425531,
      "ornamentId": "ap1"
    },
    {
      "title": "Central Post Office",
      "lat": 50.083323,
      "lng": 14.427685,
      "ornamentId": "ap1"
    },
    {
      "title": "Děti u okna",
      "lat": 50.083571,
      "lng": 14.427647,
      "ornamentId": "ap1"
    },
    {
      "title": "Anna Chromy in Memory of W. A.",
      "lat": 50.085784,
      "lng": 14.423178,
      "ornamentId": "ap1"
    },
    {
      "title": "Vyzdoba Sporitelny",
      "lat": 50.085192,
      "lng": 14.421712,
      "ornamentId": "ap1"
    },
    {
      "title": "Platýz - Odpočívající",
      "lat": 50.083182,
      "lng": 14.420396,
      "ornamentId": "ap1"
    },
    {
      "title": "Ehrwürdiger Balken",
      "lat": 50.085887,
      "lng": 14.423758,
      "ornamentId": "ap1"
    },
    {
      "title": "Standing Woman Sculpture",
      "lat": 50.083627,
      "lng": 14.426992,
      "ornamentId": "ap1"
    },
    {
      "title": "U Prvni Reduty",
      "lat": 50.090602,
      "lng": 14.418158,
      "ornamentId": "ap1"
    },
    {
      "title": "Prvni Americo-Ceska Pojistovna",
      "lat": 50.090965,
      "lng": 14.418194,
      "ornamentId": "ap1"
    },
    {
      "title": "Rotunda sv. Kříže",
      "lat": 50.082777,
      "lng": 14.414721,
      "ornamentId": "ap1"
    },
    {
      "title": "Fontana S Hlavou",
      "lat": 50.082753,
      "lng": 14.415042,
      "ornamentId": "ap1"
    },
    {
      "title": "Industrial home sign 1890",
      "lat": 50.082983,
      "lng": 14.414623,
      "ornamentId": "ap1"
    },
    {
      "title": "Čajovna U Zlatého Kohouta",
      "lat": 50.084435,
      "lng": 14.419626,
      "ornamentId": "ap1"
    },
    {
      "title": "Erb",
      "lat": 50.084375,
      "lng": 14.419929,
      "ornamentId": "ap1"
    },
    {
      "title": "Art On The Wall",
      "lat": 50.084701,
      "lng": 14.419862,
      "ornamentId": "ap1"
    },
    {
      "title": "Cosi Pod Voknem",
      "lat": 50.082892,
      "lng": 14.419655,
      "ornamentId": "ap1"
    },
    {
      "title": "Brokoff Belly Umelec",
      "lat": 50.083117,
      "lng": 14.419992,
      "ornamentId": "ap1"
    },
    {
      "title": "Socha na kostele sv. Martina",
      "lat": 50.083117,
      "lng": 14.419683,
      "ornamentId": "ap1"
    },
    {
      "title": "Kašna Uhelný Trh",
      "lat": 50.083904,
      "lng": 14.420379,
      "ornamentId": "ap1"
    },
    {
      "title": "Atlas, Skořepka",
      "lat": 50.083673,
      "lng": 14.420037,
      "ornamentId": "ap1"
    },
    {
      "title": "Lion",
      "lat": 50.082659,
      "lng": 14.414212,
      "ornamentId": "ap1"
    },
    {
      "title": "Lamentující žena",
      "lat": 50.083249,
      "lng": 14.414363,
      "ornamentId": "ap1"
    },
    {
      "title": "Staroměstské náměstí",
      "lat": 50.087451,
      "lng": 14.420671,
      "ornamentId": "ap1"
    },
    {
      "title": "Pamětní deska Pražského povstání",
      "lat": 50.087222,
      "lng": 14.420687,
      "ornamentId": "ap1"
    },
    {
      "title": "Artur Gorgey",
      "lat": 50.086044,
      "lng": 14.421114,
      "ornamentId": "ap1"
    },
    {
      "title": "Mordujace Sie Szczeniaki",
      "lat": 50.086154,
      "lng": 14.420461,
      "ornamentId": "ap1"
    },
    {
      "title": "Golden Angel",
      "lat": 50.086487,
      "lng": 14.420607,
      "ornamentId": "ap1"
    },
    {
      "title": "Staroměstská radnice",
      "lat": 50.086875,
      "lng": 14.420465,
      "ornamentId": "ap1"
    },
    {
      "title": "Zdobená fasáda",
      "lat": 50.084069,
      "lng": 14.420739,
      "ornamentId": "ap1"
    },
    {
      "title": "F. Liszt",
      "lat": 50.083408,
      "lng": 14.420087,
      "ornamentId": "ap1"
    },
    {
      "title": "Street Art Cat 2",
      "lat": 50.083582,
      "lng": 14.420289,
      "ornamentId": "ap1"
    },
    {
      "title": "Liliova Karlova Corner",
      "lat": 50.086106,
      "lng": 14.416193,
      "ornamentId": "ap1"
    },
    {
      "title": "Katedrála svatého Klimenta Praha",
      "lat": 50.086289,
      "lng": 14.416074,
      "ornamentId": "ap1"
    },
    {
      "title": "Marionettentheater",
      "lat": 50.086067,
      "lng": 14.415806,
      "ornamentId": "ap1"
    },
    {
      "title": "3 Zdobeny Okna",
      "lat": 50.084598,
      "lng": 14.420684,
      "ornamentId": "ap1"
    },
    {
      "title": "U Medvídků, penzion",
      "lat": 50.082984,
      "lng": 14.41876,
      "ornamentId": "ap1"
    },
    {
      "title": "U Medvídků",
      "lat": 50.082789,
      "lng": 14.418886,
      "ornamentId": "ap1"
    },
    {
      "title": "Wall Art",
      "lat": 50.08257,
      "lng": 14.419243,
      "ornamentId": "ap1"
    },
    {
      "title": "Vlašská kaple Nanebevzetí Panny Marie",
      "lat": 50.086161,
      "lng": 14.415533,
      "ornamentId": "ap1"
    },
    {
      "title": "Divadlo Lucie Bílé",
      "lat": 50.085869,
      "lng": 14.41513,
      "ornamentId": "ap1"
    },
    {
      "title": "Plaque",
      "lat": 50.084899,
      "lng": 14.421002,
      "ornamentId": "ap1"
    },
    {
      "title": "Atlasove",
      "lat": 50.085304,
      "lng": 14.421411,
      "ornamentId": "ap1"
    },
    {
      "title": "Marcus Marci",
      "lat": 50.085751,
      "lng": 14.420703,
      "ornamentId": "ap1"
    },
    {
      "title": "Kachny",
      "lat": 50.08543,
      "lng": 14.420939,
      "ornamentId": "ap1"
    },
    {
      "title": "Vyznamne Osobnosti",
      "lat": 50.08417,
      "lng": 14.419985,
      "ornamentId": "ap1"
    },
    {
      "title": "Pavel Josef Šafařík, Staré Město",
      "lat": 50.08613,
      "lng": 14.416531,
      "ornamentId": "ap1"
    },
    {
      "title": "Staroměstský orloj",
      "lat": 50.087042,
      "lng": 14.420705,
      "ornamentId": "ap1"
    },
    {
      "title": "Stylový dům",
      "lat": 50.086517,
      "lng": 14.420187,
      "ornamentId": "ap1"
    },
    {
      "title": "Kostel sv. Jindřicha a sv. Kunhůty",
      "lat": 50.084789,
      "lng": 14.430226,
      "ornamentId": "ap1"
    },
    {
      "title": "Na pamět Josefa Hory",
      "lat": 50.083054,
      "lng": 14.426846,
      "ornamentId": "ap1"
    },
    {
      "title": "Pošťák na římse",
      "lat": 50.083236,
      "lng": 14.427133,
      "ornamentId": "ap1"
    },
    {
      "title": "Pamětní deska Padlým",
      "lat": 50.083402,
      "lng": 14.427398,
      "ornamentId": "ap1"
    },
    {
      "title": "Egon Erwin Kisch, Nové Město",
      "lat": 50.08443,
      "lng": 14.427151,
      "ornamentId": "ap1"
    },
    {
      "title": "Wiehlův dům",
      "lat": 50.081964,
      "lng": 14.426071,
      "ornamentId": "ap1"
    },
    {
      "title": "Golden Prague Medailon",
      "lat": 50.085374,
      "lng": 14.422698,
      "ornamentId": "ap1"
    },
    {
      "title": "Faraon",
      "lat": 50.088995,
      "lng": 14.428998,
      "ornamentId": "ap1"
    },
    {
      "title": "Sculpture \"Night And Day\"",
      "lat": 50.088106,
      "lng": 14.423559,
      "ornamentId": "ap1"
    },
    {
      "title": "Ulice Celetná",
      "lat": 50.087241,
      "lng": 14.4261,
      "ornamentId": "ap1"
    },
    {
      "title": "Pussycat",
      "lat": 50.089788,
      "lng": 14.422423,
      "ornamentId": "ap1"
    },
    {
      "title": "Youngsters At 36",
      "lat": 50.090402,
      "lng": 14.425562,
      "ornamentId": "ap1"
    },
    {
      "title": "Angels on the Gate",
      "lat": 50.089329,
      "lng": 14.431237,
      "ornamentId": "ap1"
    },
    {
      "title": "Gestin Centrum",
      "lat": 50.088994,
      "lng": 14.43122,
      "ornamentId": "ap1"
    },
    {
      "title": "Socha ženy",
      "lat": 50.085801,
      "lng": 14.428839,
      "ornamentId": "ap1"
    },
    {
      "title": "Hermes Lion",
      "lat": 50.089051,
      "lng": 14.419812,
      "ornamentId": "ap1"
    },
    {
      "title": "David Černý - Viselec | 1997",
      "lat": 50.084292,
      "lng": 14.418248,
      "ornamentId": "ap1"
    },
    {
      "title": "Three Faces",
      "lat": 50.084652,
      "lng": 14.418994,
      "ornamentId": "ap1"
    },
    {
      "title": "Sad Man's Tongue",
      "lat": 50.083479,
      "lng": 14.416098,
      "ornamentId": "ap1"
    },
    {
      "title": "Sadman",
      "lat": 50.084974,
      "lng": 14.416471,
      "ornamentId": "ap1"
    },
    {
      "title": "Little Guy",
      "lat": 50.085055,
      "lng": 14.415142,
      "ornamentId": "ap1"
    },
    {
      "title": "Hlava",
      "lat": 50.083632,
      "lng": 14.415231,
      "ornamentId": "ap1"
    },
    {
      "title": "Kostel svatého Jiljí Praha",
      "lat": 50.08508,
      "lng": 14.418518,
      "ornamentId": "ap1"
    },
    {
      "title": "JedenPiecCztery",
      "lat": 50.086086,
      "lng": 14.418253,
      "ornamentId": "ap1"
    },
    {
      "title": "Maly dům Rožmberský",
      "lat": 50.084855,
      "lng": 14.420156,
      "ornamentId": "ap1"
    },
    {
      "title": "Románské sloupy, Staré město",
      "lat": 50.082488,
      "lng": 14.414652,
      "ornamentId": "ap1"
    },
    {
      "title": "Decorated Gate",
      "lat": 50.085905,
      "lng": 14.420274,
      "ornamentId": "ap1"
    },
    {
      "title": "Alter Eingang",
      "lat": 50.088283,
      "lng": 14.41991,
      "ornamentId": "ap1"
    },
    {
      "title": "Havelske Trziste",
      "lat": 50.085107,
      "lng": 14.421458,
      "ornamentId": "ap1"
    },
    {
      "title": "Dedecek Hribecek",
      "lat": 50.082712,
      "lng": 14.415341,
      "ornamentId": "ap1"
    },
    {
      "title": "Pitko",
      "lat": 50.082497,
      "lng": 14.415222,
      "ornamentId": "ap1"
    },
    {
      "title": "Domovní znamení Kalicha",
      "lat": 50.083805,
      "lng": 14.415529,
      "ornamentId": "ap1"
    },
    {
      "title": "Svatý Jan Konviktský",
      "lat": 50.083371,
      "lng": 14.41637,
      "ornamentId": "ap1"
    },
    {
      "title": "Central Archive, Husova St., P",
      "lat": 50.086158,
      "lng": 14.417858,
      "ornamentId": "ap1"
    },
    {
      "title": "Arnošt Lustig",
      "lat": 50.08714,
      "lng": 14.418947,
      "ornamentId": "ap1"
    },
    {
      "title": "Historical building - U Závoje",
      "lat": 50.085633,
      "lng": 14.421826,
      "ornamentId": "ap1"
    },
    {
      "title": "Antica Figura",
      "lat": 50.086453,
      "lng": 14.416453,
      "ornamentId": "ap1"
    },
    {
      "title": "The Reading Child",
      "lat": 50.086433,
      "lng": 14.416089,
      "ornamentId": "ap1"
    },
    {
      "title": "Da qualche parte a Stare Mesto",
      "lat": 50.085289,
      "lng": 14.415822,
      "ornamentId": "ap1"
    },
    {
      "title": "Obří hrozny",
      "lat": 50.086238,
      "lng": 14.422673,
      "ornamentId": "ap1"
    },
    {
      "title": "U Bileho Jelinka",
      "lat": 50.08438,
      "lng": 14.415121,
      "ornamentId": "ap1"
    },
    {
      "title": "Malovaná tržnice",
      "lat": 50.083998,
      "lng": 14.421901,
      "ornamentId": "ap1"
    },
    {
      "title": "1458 F. Vilon",
      "lat": 50.082997,
      "lng": 14.415535,
      "ornamentId": "ap1"
    },
    {
      "title": "Kaja Saudek Muzeum",
      "lat": 50.083424,
      "lng": 14.422147,
      "ornamentId": "ap1"
    },
    {
      "title": "Three Friends",
      "lat": 50.081528,
      "lng": 14.414131,
      "ornamentId": "ap1"
    },
    {
      "title": "Music Club Vagon + Metro Theatre",
      "lat": 50.082177,
      "lng": 14.418128,
      "ornamentId": "ap1"
    },
    {
      "title": "Palác Krosínova",
      "lat": 50.082132,
      "lng": 14.415231,
      "ornamentId": "ap1"
    },
    {
      "title": "Hotel Thalia",
      "lat": 50.081813,
      "lng": 14.416485,
      "ornamentId": "ap1"
    },
    {
      "title": "Brick Museum",
      "lat": 50.082596,
      "lng": 14.419562,
      "ornamentId": "ap1"
    },
    {
      "title": "Dimitr Blagoev",
      "lat": 50.083672,
      "lng": 14.41473,
      "ornamentId": "ap1"
    },
    {
      "title": "Strážná věž (1232)",
      "lat": 50.08221,
      "lng": 14.416477,
      "ornamentId": "ap1"
    },
    {
      "title": "Flower Alternative Sculpture",
      "lat": 50.083441,
      "lng": 14.413827,
      "ornamentId": "ap1"
    },
    {
      "title": "Busta Krista, Krocínova",
      "lat": 50.082051,
      "lng": 14.414696,
      "ornamentId": "ap1"
    },
    {
      "title": "Three Enemies",
      "lat": 50.081523,
      "lng": 14.414598,
      "ornamentId": "ap1"
    },
    {
      "title": "Ing. Václav Šaffránek",
      "lat": 50.081943,
      "lng": 14.416017,
      "ornamentId": "ap1"
    },
    {
      "title": "Sova",
      "lat": 50.082719,
      "lng": 14.420387,
      "ornamentId": "ap1"
    },
    {
      "title": "Dvorana Knihovny Akademie věd",
      "lat": 50.081889,
      "lng": 14.414309,
      "ornamentId": "ap1"
    },
    {
      "title": "Ozdobny vjezd",
      "lat": 50.082453,
      "lng": 14.416341,
      "ornamentId": "ap1"
    },
    {
      "title": "Národní Třída, Nové Město",
      "lat": 50.081518,
      "lng": 14.415034,
      "ornamentId": "ap1"
    },
    {
      "title": "Memorial to WW2 resistance members Sonnevend",
      "lat": 50.083666,
      "lng": 14.417078,
      "ornamentId": "ap1"
    },
    {
      "title": "Sad Face",
      "lat": 50.081804,
      "lng": 14.415394,
      "ornamentId": "ap1"
    },
    {
      "title": "Konvikt Pivnice",
      "lat": 50.083282,
      "lng": 14.417922,
      "ornamentId": "ap1"
    },
    {
      "title": "Staromestske Opevneni",
      "lat": 50.082449,
      "lng": 14.41739,
      "ornamentId": "ap1"
    },
    {
      "title": "Palác Ara",
      "lat": 50.083212,
      "lng": 14.421835,
      "ornamentId": "ap1"
    },
    {
      "title": "Pamatnik Ceskoslovenske Lidobrany",
      "lat": 50.082777,
      "lng": 14.417376,
      "ornamentId": "ap1"
    },
    {
      "title": "Ritter Fassade",
      "lat": 50.083967,
      "lng": 14.41861,
      "ornamentId": "ap1"
    },
    {
      "title": "Krannerova kašna, Staré Město",
      "lat": 50.082974,
      "lng": 14.413545,
      "ornamentId": "ap1"
    },
    {
      "title": "Red statues",
      "lat": 50.083546,
      "lng": 14.422357,
      "ornamentId": "ap1"
    },
    {
      "title": "Nibirus Kriegsbären",
      "lat": 50.08304,
      "lng": 14.421514,
      "ornamentId": "ap1"
    },
    {
      "title": "Vojta Náprstek",
      "lat": 50.084046,
      "lng": 14.416666,
      "ornamentId": "ap1"
    },
    {
      "title": "Two statues on the wall",
      "lat": 50.082342,
      "lng": 14.418627,
      "ornamentId": "ap1"
    },
    {
      "title": "100. Výročí Vojty Náprstka Memorial",
      "lat": 50.083966,
      "lng": 14.416304,
      "ornamentId": "ap1"
    },
    {
      "title": "Divadlo Viola",
      "lat": 50.081556,
      "lng": 14.415327,
      "ornamentId": "ap1"
    },
    {
      "title": "Ornament nad Dvermi",
      "lat": 50.083502,
      "lng": 14.416898,
      "ornamentId": "ap1"
    },
    {
      "title": "Denim",
      "lat": 50.083767,
      "lng": 14.417559,
      "ornamentId": "ap1"
    },
    {
      "title": "Zdobená římsa Smetanovo nábřeží",
      "lat": 50.082028,
      "lng": 14.413225,
      "ornamentId": "ap1"
    },
    {
      "title": "Totem",
      "lat": 50.083973,
      "lng": 14.415885,
      "ornamentId": "ap1"
    },
    {
      "title": "Bartolomějská Věž",
      "lat": 50.083215,
      "lng": 14.417231,
      "ornamentId": "ap1"
    },
    {
      "title": "Hypnose Doors",
      "lat": 50.082764,
      "lng": 14.42085,
      "ornamentId": "ap1"
    },
    {
      "title": "Angel",
      "lat": 50.083992,
      "lng": 14.414259,
      "ornamentId": "ap1"
    },
    {
      "title": "F.Topič",
      "lat": 50.081599,
      "lng": 14.415686,
      "ornamentId": "ap1"
    },
    {
      "title": "Kavárna Slavia",
      "lat": 50.081507,
      "lng": 14.413187,
      "ornamentId": "ap1"
    },
    {
      "title": "Tlusté Děti",
      "lat": 50.082104,
      "lng": 14.417692,
      "ornamentId": "ap1"
    },
    {
      "title": "Zdobienia Na Kamienicy",
      "lat": 50.083499,
      "lng": 14.414466,
      "ornamentId": "ap1"
    },
    {
      "title": "Národní filmový archiv",
      "lat": 50.083338,
      "lng": 14.418435,
      "ornamentId": "ap1"
    },
    {
      "title": "Film and TV School",
      "lat": 50.081723,
      "lng": 14.41315,
      "ornamentId": "ap1"
    },
    {
      "title": "Historisches Wohnhaus",
      "lat": 50.082176,
      "lng": 14.415597,
      "ornamentId": "ap1"
    },
    {
      "title": "Pamiątka Karolina Svetla",
      "lat": 50.083779,
      "lng": 14.414346,
      "ornamentId": "ap1"
    },
    {
      "title": "Madona Na Perštýně",
      "lat": 50.083812,
      "lng": 14.419308,
      "ornamentId": "ap1"
    },
    {
      "title": "Sherlock`s Bar",
      "lat": 50.083065,
      "lng": 14.417596,
      "ornamentId": "ap1"
    },
    {
      "title": "Dům",
      "lat": 50.083174,
      "lng": 14.413981,
      "ornamentId": "ap1"
    },
    {
      "title": "Železná lilie",
      "lat": 50.083032,
      "lng": 14.420635,
      "ornamentId": "ap1"
    },
    {
      "title": "Jezulátko ve střešním výklenku",
      "lat": 50.090571,
      "lng": 14.420379,
      "ornamentId": "ap1"
    },
    {
      "title": "Kostel svatého Ducha",
      "lat": 50.090038,
      "lng": 14.420101,
      "ornamentId": "ap1"
    },
    {
      "title": "Kostel sv. Haštala, Staré Město",
      "lat": 50.091228,
      "lng": 14.424391,
      "ornamentId": "ap1"
    },
    {
      "title": "1915 Children",
      "lat": 50.090975,
      "lng": 14.423968,
      "ornamentId": "ap1"
    },
    {
      "title": "Golem Statue",
      "lat": 50.09101,
      "lng": 14.424783,
      "ornamentId": "ap1"
    },
    {
      "title": "Got Wood",
      "lat": 50.088083,
      "lng": 14.413955,
      "ornamentId": "ap1"
    },
    {
      "title": "Svatý s hvězdami",
      "lat": 50.087863,
      "lng": 14.413829,
      "ornamentId": "ap1"
    },
    {
      "title": "Rytířský řád Křižovníků S Červenou Hvězdou",
      "lat": 50.087447,
      "lng": 14.414423,
      "ornamentId": "ap1"
    },
    {
      "title": "Czerwone Symbole",
      "lat": 50.08739,
      "lng": 14.414086,
      "ornamentId": "ap1"
    },
    {
      "title": "Dekorace na Pouliční Lampě",
      "lat": 50.089514,
      "lng": 14.415771,
      "ornamentId": "ap1"
    },
    {
      "title": "Strážící lev",
      "lat": 50.089734,
      "lng": 14.415814,
      "ornamentId": "ap1"
    },
    {
      "title": "Rudolfinum's Sky",
      "lat": 50.089687,
      "lng": 14.415332,
      "ornamentId": "ap1"
    },
    {
      "title": "Alšovo Nábřeží",
      "lat": 50.087614,
      "lng": 14.413866,
      "ornamentId": "ap1"
    },
    {
      "title": "Náměstí Jana Palacha",
      "lat": 50.088788,
      "lng": 14.414064,
      "ornamentId": "ap1"
    },
    {
      "title": "Zlatý anděl",
      "lat": 50.089393,
      "lng": 14.415488,
      "ornamentId": "ap1"
    },
    {
      "title": "Socha Josefa Mánesa",
      "lat": 50.089698,
      "lng": 14.414441,
      "ornamentId": "ap1"
    },
    {
      "title": "Wireframed Balcony",
      "lat": 50.090494,
      "lng": 14.423371,
      "ornamentId": "ap1"
    },
    {
      "title": "Květinové Hodiny",
      "lat": 50.090638,
      "lng": 14.423657,
      "ornamentId": "ap1"
    },
    {
      "title": "Pražská secese 1908",
      "lat": 50.088346,
      "lng": 14.416549,
      "ornamentId": "ap1"
    },
    {
      "title": "Odnowiona Kamienica",
      "lat": 50.088539,
      "lng": 14.416844,
      "ornamentId": "ap1"
    },
    {
      "title": "U DVOU STITU",
      "lat": 50.088586,
      "lng": 14.416558,
      "ornamentId": "ap1"
    },
    {
      "title": "Lvi chránící střechu",
      "lat": 50.088067,
      "lng": 14.421007,
      "ornamentId": "ap1"
    },
    {
      "title": "Dionysos (Bacchus)",
      "lat": 50.088045,
      "lng": 14.42046,
      "ornamentId": "ap1"
    },
    {
      "title": "Statue de lettres à Prague",
      "lat": 50.08807,
      "lng": 14.421508,
      "ornamentId": "ap1"
    },
    {
      "title": "Otakar Mařák",
      "lat": 50.088835,
      "lng": 14.419876,
      "ornamentId": "ap1"
    },
    {
      "title": "Fancy entrance portal",
      "lat": 50.088221,
      "lng": 14.421164,
      "ornamentId": "ap1"
    },
    {
      "title": "Dům s vojáky Havlíčkova",
      "lat": 50.089452,
      "lng": 14.432329,
      "ornamentId": "ap1"
    },
    {
      "title": "Josef Kajetán Tyl",
      "lat": 50.088393,
      "lng": 14.429239,
      "ornamentId": "ap1"
    },
    {
      "title": "Dům U zeleného stolu",
      "lat": 50.090782,
      "lng": 14.426464,
      "ornamentId": "ap1"
    },
    {
      "title": "místo narození J. Heyrovského",
      "lat": 50.088607,
      "lng": 14.415677,
      "ornamentId": "ap1"
    },
    {
      "title": "Statue on the Wall",
      "lat": 50.08818,
      "lng": 14.415537,
      "ornamentId": "ap1"
    },
    {
      "title": "Divadlo Na Rejdišti",
      "lat": 50.090866,
      "lng": 14.415563,
      "ornamentId": "ap1"
    },
    {
      "title": "Fontána",
      "lat": 50.089132,
      "lng": 14.41417,
      "ornamentId": "ap1"
    },
    {
      "title": "The Old New Synagogue",
      "lat": 50.090039,
      "lng": 14.418444,
      "ornamentId": "ap1"
    },
    {
      "title": "Neptune Statue-Prague",
      "lat": 50.087265,
      "lng": 14.422426,
      "ornamentId": "ap1"
    },
    {
      "title": "Fountain",
      "lat": 50.087874,
      "lng": 14.420183,
      "ornamentId": "ap1"
    },
    {
      "title": "Historical building with czech lion ornament",
      "lat": 50.087097,
      "lng": 14.419318,
      "ornamentId": "ap1"
    },
    {
      "title": "Praha matka měst",
      "lat": 50.087739,
      "lng": 14.418986,
      "ornamentId": "ap1"
    },
    {
      "title": "Dračí hlava",
      "lat": 50.090731,
      "lng": 14.422612,
      "ornamentId": "ap1"
    },
    {
      "title": "Franz Kafka",
      "lat": 50.08782,
      "lng": 14.41924,
      "ornamentId": "ap1"
    },
    {
      "title": "Zlatá Hlava",
      "lat": 50.088035,
      "lng": 14.41882,
      "ornamentId": "ap1"
    },
    {
      "title": "Head Of The Dragons",
      "lat": 50.088563,
      "lng": 14.423546,
      "ornamentId": "ap1"
    },
    {
      "title": "Kostel sv. Jakuba",
      "lat": 50.088316,
      "lng": 14.424595,
      "ornamentId": "ap1"
    },
    {
      "title": "Sedící andělé",
      "lat": 50.088344,
      "lng": 14.420188,
      "ornamentId": "ap1"
    },
    {
      "title": "Battle Of Dukla Pass Memorial Plaque",
      "lat": 50.087751,
      "lng": 14.421506,
      "ornamentId": "ap1"
    },
    {
      "title": "Pařížská, Prague",
      "lat": 50.088652,
      "lng": 14.419915,
      "ornamentId": "ap1"
    },
    {
      "title": "Harpy Nest",
      "lat": 50.090299,
      "lng": 14.422872,
      "ornamentId": "ap1"
    },
    {
      "title": "Babka na rohu",
      "lat": 50.087443,
      "lng": 14.418939,
      "ornamentId": "ap1"
    },
    {
      "title": "Secesní malby ve Valentinské",
      "lat": 50.08808,
      "lng": 14.416406,
      "ornamentId": "ap1"
    },
    {
      "title": "Bridge Art",
      "lat": 50.087627,
      "lng": 14.418766,
      "ornamentId": "ap1"
    },
    {
      "title": "Balkon",
      "lat": 50.088789,
      "lng": 14.421679,
      "ornamentId": "ap1"
    },
    {
      "title": "Římskokatolická farnost Matky Boží před Týnem",
      "lat": 50.087824,
      "lng": 14.422784,
      "ornamentId": "ap1"
    },
    {
      "title": "Josef Bučil",
      "lat": 50.086376,
      "lng": 14.428968,
      "ornamentId": "ap1"
    },
    {
      "title": "Konektor Place",
      "lat": 50.088721,
      "lng": 14.428282,
      "ornamentId": "ap1"
    },
    {
      "title": "Klášter Kapucínu",
      "lat": 50.088868,
      "lng": 14.429829,
      "ornamentId": "ap1"
    },
    {
      "title": "Slovanský dům",
      "lat": 50.086413,
      "lng": 14.427243,
      "ornamentId": "ap1"
    },
    {
      "title": "Česká Národní Banka",
      "lat": 50.087008,
      "lng": 14.428395,
      "ornamentId": "ap1"
    },
    {
      "title": "Busta Jan Kotěra",
      "lat": 50.088747,
      "lng": 14.414492,
      "ornamentId": "ap1"
    },
    {
      "title": "Dům u Mušketýrů",
      "lat": 50.089853,
      "lng": 14.420018,
      "ornamentId": "ap1"
    },
    {
      "title": "Pinkasova Synagoga",
      "lat": 50.089364,
      "lng": 14.416862,
      "ornamentId": "ap1"
    },
    {
      "title": "Statue",
      "lat": 50.090311,
      "lng": 14.418692,
      "ornamentId": "ap1"
    },
    {
      "title": "Template",
      "lat": 50.09035,
      "lng": 14.418206,
      "ornamentId": "ap1"
    },
    {
      "title": "The Jewish Primary Scool (1920-1945)",
      "lat": 50.088575,
      "lng": 14.419172,
      "ornamentId": "ap1"
    },
    {
      "title": "Castle",
      "lat": 50.08904,
      "lng": 14.416263,
      "ornamentId": "ap1"
    },
    {
      "title": "Chrám U Salvátora, Československý Evangelický Chrám",
      "lat": 50.089043,
      "lng": 14.420586,
      "ornamentId": "ap1"
    },
    {
      "title": "Egizi A Praga",
      "lat": 50.090154,
      "lng": 14.419783,
      "ornamentId": "ap1"
    },
    {
      "title": "Bellevue Palace",
      "lat": 50.08435,
      "lng": 14.413562,
      "ornamentId": "ap1"
    },
    {
      "title": "Prague",
      "lat": 50.086391,
      "lng": 14.419427,
      "ornamentId": "ap1"
    },
    {
      "title": "Trpaslici UNIMA",
      "lat": 50.087865,
      "lng": 14.417634,
      "ornamentId": "ap1"
    },
    {
      "title": "Hotel Aurus",
      "lat": 50.086084,
      "lng": 14.416867,
      "ornamentId": "ap1"
    },
    {
      "title": "Portal Doorway",
      "lat": 50.089637,
      "lng": 14.420814,
      "ornamentId": "ap1"
    },
    {
      "title": "Les Signes",
      "lat": 50.088954,
      "lng": 14.4215,
      "ornamentId": "ap1"
    },
    {
      "title": "1911 Statue",
      "lat": 50.090644,
      "lng": 14.417645,
      "ornamentId": "ap1"
    },
    {
      "title": "Man and Child",
      "lat": 50.084853,
      "lng": 14.421913,
      "ornamentId": "ap1"
    },
    {
      "title": "Beer Museum",
      "lat": 50.085058,
      "lng": 14.418155,
      "ornamentId": "ap1"
    },
    {
      "title": "Painted Folding Screen",
      "lat": 50.087768,
      "lng": 14.41679,
      "ornamentId": "ap1"
    },
    {
      "title": "Erwin",
      "lat": 50.086369,
      "lng": 14.421432,
      "ornamentId": "ap1"
    },
    {
      "title": "Kostel sv. Havla, Staré Město",
      "lat": 50.085584,
      "lng": 14.422226,
      "ornamentId": "ap1"
    },
    {
      "title": "Magistrát hlavního města Prahy",
      "lat": 50.087072,
      "lng": 14.417804,
      "ornamentId": "ap1"
    },
    {
      "title": "Busta Rudolfa Kremličky Praha",
      "lat": 50.089667,
      "lng": 14.419373,
      "ornamentId": "ap1"
    },
    {
      "title": "Musketeer statue",
      "lat": 50.086422,
      "lng": 14.415084,
      "ornamentId": "ap1"
    },
    {
      "title": "Audemars Piguet",
      "lat": 50.088682,
      "lng": 14.420589,
      "ornamentId": "ap1"
    },
    {
      "title": "Dravec",
      "lat": 50.086415,
      "lng": 14.422298,
      "ornamentId": "ap1"
    },
    {
      "title": "Carrier",
      "lat": 50.088414,
      "lng": 14.421648,
      "ornamentId": "ap1"
    },
    {
      "title": "Apache",
      "lat": 50.08866,
      "lng": 14.419512,
      "ornamentId": "ap1"
    },
    {
      "title": "Dum Jaroslava Jezka",
      "lat": 50.088291,
      "lng": 14.417284,
      "ornamentId": "ap1"
    },
    {
      "title": "Antonín Dvořák, Rudolfinum",
      "lat": 50.089241,
      "lng": 14.415175,
      "ornamentId": "ap1"
    },
    {
      "title": "Well of Wisdom",
      "lat": 50.087368,
      "lng": 14.417363,
      "ornamentId": "ap1"
    },
    {
      "title": "Historic Ornaments",
      "lat": 50.085007,
      "lng": 14.415522,
      "ornamentId": "ap1"
    },
    {
      "title": "Socha anděla bez hlavy",
      "lat": 50.088612,
      "lng": 14.41481,
      "ornamentId": "ap1"
    },
    {
      "title": "Žák",
      "lat": 50.087954,
      "lng": 14.414985,
      "ornamentId": "ap1"
    },
    {
      "title": "Městský dům Kaprova",
      "lat": 50.088273,
      "lng": 14.417809,
      "ornamentId": "ap1"
    },
    {
      "title": "St. Nicholas Church",
      "lat": 50.087942,
      "lng": 14.419876,
      "ornamentId": "ap1"
    },
    {
      "title": "Mariánsky sloup",
      "lat": 50.087354,
      "lng": 14.421306,
      "ornamentId": "ap1"
    },
    {
      "title": "Týnský chrám",
      "lat": 50.087657,
      "lng": 14.421979,
      "ornamentId": "ap1"
    },
    {
      "title": "Dark Knight",
      "lat": 50.087306,
      "lng": 14.417656,
      "ornamentId": "ap1"
    },
    {
      "title": "Secese",
      "lat": 50.091028,
      "lng": 14.41722,
      "ornamentId": "ap1"
    },
    {
      "title": "Hängende Skulptur",
      "lat": 50.08416,
      "lng": 14.418298,
      "ornamentId": "ap1"
    },
    {
      "title": "U Modrého Hroznu",
      "lat": 50.085775,
      "lng": 14.418125,
      "ornamentId": "ap1"
    },
    {
      "title": "Kašpar 1913",
      "lat": 50.090443,
      "lng": 14.421189,
      "ornamentId": "ap1"
    },
    {
      "title": "Antonin Sova",
      "lat": 50.089448,
      "lng": 14.419096,
      "ornamentId": "ap1"
    },
    {
      "title": "Harfa",
      "lat": 50.085286,
      "lng": 14.419968,
      "ornamentId": "ap1"
    },
    {
      "title": "Synagoga",
      "lat": 50.090334,
      "lng": 14.420745,
      "ornamentId": "ap1"
    },
    {
      "title": "Popiersie Kogośtam",
      "lat": 50.088246,
      "lng": 14.414306,
      "ornamentId": "ap1"
    },
    {
      "title": "Statue De Franz Kafka",
      "lat": 50.090102,
      "lng": 14.420763,
      "ornamentId": "ap1"
    },
    {
      "title": "Religious Picture on the Wall",
      "lat": 50.084181,
      "lng": 14.414198,
      "ornamentId": "ap1"
    },
    {
      "title": "SÚ ČSAV",
      "lat": 50.087314,
      "lng": 14.416711,
      "ornamentId": "ap1"
    },
    {
      "title": "Two Angels",
      "lat": 50.084632,
      "lng": 14.415498,
      "ornamentId": "ap1"
    },
    {
      "title": "Židovská Obec v Praze",
      "lat": 50.089756,
      "lng": 14.418425,
      "ornamentId": "ap1"
    },
    {
      "title": "Pomníček Věrni zůstanem",
      "lat": 50.090294,
      "lng": 14.418982,
      "ornamentId": "ap1"
    },
    {
      "title": "Gestempelte Fassade",
      "lat": 50.08434,
      "lng": 14.415637,
      "ornamentId": "ap1"
    },
    {
      "title": "Štencův Dům",
      "lat": 50.089458,
      "lng": 14.421398,
      "ornamentId": "ap1"
    },
    {
      "title": "Iron Gate Passage",
      "lat": 50.085672,
      "lng": 14.41988,
      "ornamentId": "ap1"
    },
    {
      "title": "Animal Decorations",
      "lat": 50.091173,
      "lng": 14.420223,
      "ornamentId": "ap1"
    },
    {
      "title": "Nosiči balkónu",
      "lat": 50.0911,
      "lng": 14.422155,
      "ornamentId": "ap1"
    },
    {
      "title": "Emanuel Piňos Hero Memorial",
      "lat": 50.085542,
      "lng": 14.419331,
      "ornamentId": "ap1"
    },
    {
      "title": "Tenis Door",
      "lat": 50.084572,
      "lng": 14.41931,
      "ornamentId": "ap1"
    },
    {
      "title": "Santa Maria LP 1914",
      "lat": 50.087713,
      "lng": 14.41784,
      "ornamentId": "ap1"
    },
    {
      "title": "Slovenský Inštitút",
      "lat": 50.08542,
      "lng": 14.419051,
      "ornamentId": "ap1"
    },
    {
      "title": "Klausová Synagoga",
      "lat": 50.090002,
      "lng": 14.417147,
      "ornamentId": "ap1"
    },
    {
      "title": "Pleading Statue",
      "lat": 50.084052,
      "lng": 14.418933,
      "ornamentId": "ap1"
    },
    {
      "title": "Squatters",
      "lat": 50.087521,
      "lng": 14.418403,
      "ornamentId": "ap1"
    },
    {
      "title": "Lion",
      "lat": 50.08445,
      "lng": 14.414252,
      "ornamentId": "ap1"
    },
    {
      "title": "Rudolfinum Organ",
      "lat": 50.089987,
      "lng": 14.415446,
      "ornamentId": "ap1"
    },
    {
      "title": "Josefov, Praha (Prague), Česká",
      "lat": 50.089241,
      "lng": 14.41936,
      "ornamentId": "ap1"
    },
    {
      "title": "Wall Statue",
      "lat": 50.087137,
      "lng": 14.415489,
      "ornamentId": "ap1"
    },
    {
      "title": "Statue of Telephone Booth",
      "lat": 50.086923,
      "lng": 14.417527,
      "ornamentId": "ap1"
    },
    {
      "title": "Andrija Mohorovic (1857 - 1936)",
      "lat": 50.086906,
      "lng": 14.416675,
      "ornamentId": "ap1"
    },
    {
      "title": "Lvi Hlava",
      "lat": 50.085097,
      "lng": 14.419028,
      "ornamentId": "ap1"
    },
    {
      "title": "Bohuslav Balbín",
      "lat": 50.086378,
      "lng": 14.415411,
      "ornamentId": "ap1"
    },
    {
      "title": "Un Trou Dans La Facade",
      "lat": 50.089811,
      "lng": 14.420697,
      "ornamentId": "ap1"
    },
    {
      "title": "Parent",
      "lat": 50.090129,
      "lng": 14.416337,
      "ornamentId": "ap1"
    },
    {
      "title": "Najpierw Rzeźba Potem Masa",
      "lat": 50.08436,
      "lng": 14.41885,
      "ornamentId": "ap1"
    },
    {
      "title": "Astronomická věž Klementina",
      "lat": 50.086658,
      "lng": 14.41649,
      "ornamentId": "ap1"
    },
    {
      "title": "Družstvo Pro Stavbu Učitelských Domů V Praze",
      "lat": 50.090992,
      "lng": 14.419492,
      "ornamentId": "ap1"
    },
    {
      "title": "Dva býci",
      "lat": 50.088564,
      "lng": 14.415296,
      "ornamentId": "ap1"
    },
    {
      "title": "Hany Bany",
      "lat": 50.087912,
      "lng": 14.416161,
      "ornamentId": "ap1"
    },
    {
      "title": "Strange Guy",
      "lat": 50.086662,
      "lng": 14.417199,
      "ornamentId": "ap1"
    },
    {
      "title": "Hammerman And Birdlady",
      "lat": 50.085436,
      "lng": 14.422025,
      "ornamentId": "ap1"
    },
    {
      "title": "House on Rytířská St., Prague",
      "lat": 50.085192,
      "lng": 14.422453,
      "ornamentId": "ap1"
    },
    {
      "title": "Bocni Vchod Kostela Sv. Jilji",
      "lat": 50.084876,
      "lng": 14.418688,
      "ornamentId": "ap1"
    },
    {
      "title": "Pražský poledník",
      "lat": 50.087579,
      "lng": 14.421391,
      "ornamentId": "ap1"
    },
    {
      "title": "Ladies on door",
      "lat": 50.084399,
      "lng": 14.415925,
      "ornamentId": "ap1"
    },
    {
      "title": "U Znaků",
      "lat": 50.089569,
      "lng": 14.420058,
      "ornamentId": "ap1"
    },
    {
      "title": "Mansson pekárna",
      "lat": 50.090972,
      "lng": 14.420041,
      "ornamentId": "ap1"
    },
    {
      "title": "Fasáda s keramikou, Valentinská",
      "lat": 50.088773,
      "lng": 14.416937,
      "ornamentId": "ap1"
    },
    {
      "title": "Dvorec pánů z Kunštátu a Poděbrad, Staré Město",
      "lat": 50.085473,
      "lng": 14.417288,
      "ornamentId": "ap1"
    },
    {
      "title": "Johannes Kepler",
      "lat": 50.085999,
      "lng": 14.414927,
      "ornamentId": "ap1"
    },
    {
      "title": "Metal Monster",
      "lat": 50.085212,
      "lng": 14.41667,
      "ornamentId": "ap1"
    },
    {
      "title": "Bedřich Kůla Memorial",
      "lat": 50.08745,
      "lng": 14.417976,
      "ornamentId": "ap1"
    },
    {
      "title": "Life Is Art",
      "lat": 50.084426,
      "lng": 14.414786,
      "ornamentId": "ap1"
    },
    {
      "title": "Hindsight",
      "lat": 50.087864,
      "lng": 14.420563,
      "ornamentId": "ap1"
    },
    {
      "title": "Facade rue Jilska - Prague",
      "lat": 50.086325,
      "lng": 14.419007,
      "ornamentId": "ap1"
    },
    {
      "title": "Brána s reliéfy dívek | 1906",
      "lat": 50.090281,
      "lng": 14.421928,
      "ornamentId": "ap1"
    },
    {
      "title": "U Kočků",
      "lat": 50.086062,
      "lng": 14.418942,
      "ornamentId": "ap1"
    },
    {
      "title": "Zdobená fasáda",
      "lat": 50.085476,
      "lng": 14.419973,
      "ornamentId": "ap1"
    },
    {
      "title": "Zlatý Ježíš",
      "lat": 50.089914,
      "lng": 14.420318,
      "ornamentId": "ap1"
    },
    {
      "title": "Pinnion",
      "lat": 50.084646,
      "lng": 14.41834,
      "ornamentId": "ap1"
    },
    {
      "title": "Kostel svatého Michaela archanděla Praha",
      "lat": 50.086279,
      "lng": 14.42003,
      "ornamentId": "ap1"
    },
    {
      "title": "Mánesův most",
      "lat": 50.089273,
      "lng": 14.413866,
      "ornamentId": "ap1"
    },
    {
      "title": "Studna",
      "lat": 50.085384,
      "lng": 14.420621,
      "ornamentId": "ap1"
    },
    {
      "title": "Hudební ústav",
      "lat": 50.087028,
      "lng": 14.421311,
      "ornamentId": "ap1"
    },
    {
      "title": "Antik Maiselova",
      "lat": 50.089477,
      "lng": 14.4183,
      "ornamentId": "ap1"
    },
    {
      "title": "Rabbi Löw 1520 - 1609",
      "lat": 50.086945,
      "lng": 14.417905,
      "ornamentId": "ap1"
    },
    {
      "title": "I Dzieciatko Na Budynku",
      "lat": 50.08897,
      "lng": 14.417776,
      "ornamentId": "ap1"
    },
    {
      "title": "The Black Star",
      "lat": 50.086293,
      "lng": 14.417115,
      "ornamentId": "ap1"
    },
    {
      "title": "Ladislav Houska Memorial",
      "lat": 50.08589,
      "lng": 14.419064,
      "ornamentId": "ap1"
    },
    {
      "title": "Náprstkovo muzeum",
      "lat": 50.08422,
      "lng": 14.416084,
      "ornamentId": "ap1"
    },
    {
      "title": "Stangenpark",
      "lat": 50.0912,
      "lng": 14.418647,
      "ornamentId": "ap1"
    },
    {
      "title": "La Bauchon",
      "lat": 50.088428,
      "lng": 14.422227,
      "ornamentId": "ap1"
    },
    {
      "title": "Pietà",
      "lat": 50.085568,
      "lng": 14.418184,
      "ornamentId": "ap1"
    },
    {
      "title": "Městská knihovna Mariánské náměstí",
      "lat": 50.087337,
      "lng": 14.417307,
      "ornamentId": "ap1"
    },
    {
      "title": "Památník Pavla Tigrida",
      "lat": 50.089951,
      "lng": 14.418061,
      "ornamentId": "ap1"
    },
    {
      "title": "Narodni Knihovna",
      "lat": 50.087024,
      "lng": 14.417238,
      "ornamentId": "ap1"
    },
    {
      "title": "Socha Ženy",
      "lat": 50.088558,
      "lng": 14.414465,
      "ornamentId": "ap1"
    },
    {
      "title": "Here Albert Einstein Played the Violin",
      "lat": 50.087246,
      "lng": 14.42181,
      "ornamentId": "ap1"
    },
    {
      "title": "Two Lovers | by Lea Vivot",
      "lat": 50.087774,
      "lng": 14.414489,
      "ornamentId": "ap1"
    },
    {
      "title": "Ugly Man",
      "lat": 50.084092,
      "lng": 14.418344,
      "ornamentId": "ap1"
    },
    {
      "title": "Zabytek Praga",
      "lat": 50.089759,
      "lng": 14.421893,
      "ornamentId": "ap1"
    },
    {
      "title": "Kašna s alegorickou sochou Vltavy",
      "lat": 50.086712,
      "lng": 14.417646,
      "ornamentId": "ap1"
    },
    {
      "title": "Fontána",
      "lat": 50.089408,
      "lng": 14.416516,
      "ornamentId": "ap1"
    },
    {
      "title": "Pamatka Padlych Spolupracovniku",
      "lat": 50.086453,
      "lng": 14.415786,
      "ornamentId": "ap1"
    },
    {
      "title": "ČVUT - Fakulta jaderná a fyzikálně inženýrská",
      "lat": 50.091068,
      "lng": 14.416342,
      "ornamentId": "ap1"
    },
    {
      "title": "Ceska Sporitelna",
      "lat": 50.085054,
      "lng": 14.422255,
      "ornamentId": "ap1"
    },
    {
      "title": "Dům Svobodných zednářů Praha",
      "lat": 50.088694,
      "lng": 14.417762,
      "ornamentId": "ap1"
    },
    {
      "title": "Golden Thai Girl",
      "lat": 50.087235,
      "lng": 14.422135,
      "ornamentId": "ap1"
    },
    {
      "title": "Four Seasons Hotel",
      "lat": 50.087689,
      "lng": 14.415093,
      "ornamentId": "ap1"
    },
    {
      "title": "Zuil voor Rudolfium",
      "lat": 50.08958,
      "lng": 14.415056,
      "ornamentId": "ap1"
    },
    {
      "title": "Marina",
      "lat": 50.08934,
      "lng": 14.418799,
      "ornamentId": "ap1"
    },
    {
      "title": "Cechovni Znaky",
      "lat": 50.091209,
      "lng": 14.42124,
      "ornamentId": "ap1"
    },
    {
      "title": "Crazy Facade",
      "lat": 50.089805,
      "lng": 14.421031,
      "ornamentId": "ap1"
    },
    {
      "title": "Iosephi Steplinci",
      "lat": 50.086688,
      "lng": 14.416814,
      "ornamentId": "ap1"
    },
    {
      "title": "Maiselova synagoga",
      "lat": 50.088815,
      "lng": 14.418717,
      "ornamentId": "ap1"
    },
    {
      "title": "Studna se lvem",
      "lat": 50.085059,
      "lng": 14.414655,
      "ornamentId": "ap1"
    },
    {
      "title": "Uměleckoprůmyslové museum v Praze",
      "lat": 50.089854,
      "lng": 14.416267,
      "ornamentId": "ap1"
    },
    {
      "title": "Twotailed Lions Holding Crown",
      "lat": 50.086169,
      "lng": 14.419774,
      "ornamentId": "ap1"
    },
    {
      "title": "Frog on the wall",
      "lat": 50.08744,
      "lng": 14.419352,
      "ornamentId": "ap1"
    },
    {
      "title": "Gate 436",
      "lat": 50.086703,
      "lng": 14.418688,
      "ornamentId": "ap1"
    },
    {
      "title": "Chlapec s kvetinami",
      "lat": 50.088552,
      "lng": 14.418471,
      "ornamentId": "ap1"
    },
    {
      "title": "Keplerova Fontana",
      "lat": 50.085609,
      "lng": 14.414845,
      "ornamentId": "ap1"
    },
    {
      "title": "Marie a Ježíš",
      "lat": 50.089298,
      "lng": 14.418463,
      "ornamentId": "ap1"
    },
    {
      "title": "Speculum Alchemie",
      "lat": 50.090902,
      "lng": 14.422447,
      "ornamentId": "ap1"
    },
    {
      "title": "Kalich",
      "lat": 50.084066,
      "lng": 14.415592,
      "ornamentId": "ap1"
    },
    {
      "title": "Ornamenty na domě",
      "lat": 50.087897,
      "lng": 14.418536,
      "ornamentId": "ap1"
    },
    {
      "title": "Jan Hus Monument",
      "lat": 50.087714,
      "lng": 14.421179,
      "ornamentId": "ap1"
    },
    {
      "title": "Iacolius Gallus",
      "lat": 50.084742,
      "lng": 14.414366,
      "ornamentId": "ap1"
    },
    {
      "title": "Socha nad bránou",
      "lat": 50.085269,
      "lng": 14.417486,
      "ornamentId": "ap1"
    },
    {
      "title": "Památník obětem masakru na Filozofické fakultě Univerzity Karlovy",
      "lat": 50.089013,
      "lng": 14.415444,
      "ornamentId": "ap1"
    },
    {
      "title": "Plaque",
      "lat": 50.089982,
      "lng": 14.415045,
      "ornamentId": "ap1"
    },
    {
      "title": "Rudolf Deyl",
      "lat": 50.085358,
      "lng": 14.414683,
      "ornamentId": "ap1"
    },
    {
      "title": "Synagogen Restaurant",
      "lat": 50.089952,
      "lng": 14.418857,
      "ornamentId": "ap1"
    },
    {
      "title": "Two Watching Statues",
      "lat": 50.087289,
      "lng": 14.416176,
      "ornamentId": "ap1"
    },
    {
      "title": "Les Trois Statues",
      "lat": 50.084124,
      "lng": 14.414058,
      "ornamentId": "ap1"
    },
    {
      "title": "Sfinga U Rudolfina",
      "lat": 50.09024,
      "lng": 14.415154,
      "ornamentId": "ap1"
    },
    {
      "title": "Deer And Hunter",
      "lat": 50.085021,
      "lng": 14.41991,
      "ornamentId": "ap1"
    },
    {
      "title": "Kosmická Nástěnná Malba",
      "lat": 50.088338,
      "lng": 14.41861,
      "ornamentId": "ap1"
    },
    {
      "title": "Andělíček a děcka",
      "lat": 50.085583,
      "lng": 14.416292,
      "ornamentId": "ap1"
    },
    {
      "title": "History Of Czechoslovakia",
      "lat": 50.084844,
      "lng": 14.414836,
      "ornamentId": "ap1"
    },
    {
      "title": "Anensky klaster",
      "lat": 50.085069,
      "lng": 14.415845,
      "ornamentId": "ap1"
    },
    {
      "title": "Krásný dům v Praze",
      "lat": 50.084292,
      "lng": 14.416477,
      "ornamentId": "ap1"
    },
    {
      "title": "Betlémská",
      "lat": 50.084174,
      "lng": 14.417508,
      "ornamentId": "ap1"
    },
    {
      "title": "Kašna",
      "lat": 50.086648,
      "lng": 14.419546,
      "ornamentId": "ap1"
    },
    {
      "title": "Holzknecht",
      "lat": 50.089055,
      "lng": 14.418167,
      "ornamentId": "ap1"
    },
    {
      "title": "U Zlateho Tygra",
      "lat": 50.085254,
      "lng": 14.418318,
      "ornamentId": "ap1"
    },
    {
      "title": "Woman with Long Hair",
      "lat": 50.090762,
      "lng": 14.419206,
      "ornamentId": "ap1"
    },
    {
      "title": "Four Rings Sign",
      "lat": 50.084883,
      "lng": 14.416917,
      "ornamentId": "ap1"
    },
    {
      "title": "Ozdoba",
      "lat": 50.088743,
      "lng": 14.434348,
      "ornamentId": "ap1"
    },
    {
      "title": "The Pink Palace",
      "lat": 50.087114,
      "lng": 14.4343,
      "ornamentId": "ap1"
    },
    {
      "title": "Český dvouocasý lev a dvě orlice",
      "lat": 50.084879,
      "lng": 14.431684,
      "ornamentId": "ap1"
    },
    {
      "title": "Jeruzalémská synagoga, Nové Město",
      "lat": 50.084689,
      "lng": 14.431897,
      "ornamentId": "ap1"
    },
    {
      "title": "Dveře s andělíčky",
      "lat": 50.084756,
      "lng": 14.433241,
      "ornamentId": "ap1"
    },
    {
      "title": "INRI Jindřišská Ulice",
      "lat": 50.085392,
      "lng": 14.430463,
      "ornamentId": "ap1"
    },
    {
      "title": "Tablice",
      "lat": 50.084971,
      "lng": 14.430412,
      "ornamentId": "ap1"
    },
    {
      "title": "Křest",
      "lat": 50.085207,
      "lng": 14.430849,
      "ornamentId": "ap1"
    },
    {
      "title": "Věrni zůstaneme",
      "lat": 50.084369,
      "lng": 14.429146,
      "ornamentId": "ap1"
    },
    {
      "title": "MacDo Fresco",
      "lat": 50.079842,
      "lng": 14.430271,
      "ornamentId": "ap1"
    },
    {
      "title": "Zdobená římsa nad oknem",
      "lat": 50.080438,
      "lng": 14.430853,
      "ornamentId": "ap1"
    },
    {
      "title": "Asekurační spolek",
      "lat": 50.085311,
      "lng": 14.430038,
      "ornamentId": "ap1"
    },
    {
      "title": "Iron Arrows",
      "lat": 50.080245,
      "lng": 14.430586,
      "ornamentId": "ap1"
    },
    {
      "title": "Novorenesanční Fasáda",
      "lat": 50.082939,
      "lng": 14.429318,
      "ornamentId": "ap1"
    },
    {
      "title": "Národní hospodářský ústav",
      "lat": 50.08318,
      "lng": 14.428974,
      "ornamentId": "ap1"
    },
    {
      "title": "Dívka s vlnitými vlasy",
      "lat": 50.084339,
      "lng": 14.431237,
      "ornamentId": "ap1"
    },
    {
      "title": "Památce obětí gestapa, Nové Město",
      "lat": 50.081284,
      "lng": 14.431602,
      "ornamentId": "ap1"
    },
    {
      "title": "Zdobený Vchod A Prďácká Fasáda",
      "lat": 50.08446,
      "lng": 14.431622,
      "ornamentId": "ap1"
    },
    {
      "title": "Základní kámen Bredovský dvůr",
      "lat": 50.08273,
      "lng": 14.430258,
      "ornamentId": "ap1"
    },
    {
      "title": "Divadlo Radka Brzobohatého",
      "lat": 50.081409,
      "lng": 14.429749,
      "ornamentId": "ap1"
    },
    {
      "title": "Ornament dvou grifů",
      "lat": 50.082307,
      "lng": 14.429932,
      "ornamentId": "ap1"
    },
    {
      "title": "Svaz českých a moravských výrobních družstev",
      "lat": 50.082588,
      "lng": 14.426515,
      "ornamentId": "ap1"
    },
    {
      "title": "The Flow Building",
      "lat": 50.080929,
      "lng": 14.428794,
      "ornamentId": "ap1"
    },
    {
      "title": "Palác knih Luxor",
      "lat": 50.08143,
      "lng": 14.428077,
      "ornamentId": "ap1"
    },
    {
      "title": "Pamatnik obetem komunismu",
      "lat": 50.080062,
      "lng": 14.429338,
      "ornamentId": "ap1"
    },
    {
      "title": "House with Clock Tower",
      "lat": 50.082318,
      "lng": 14.425826,
      "ornamentId": "ap1"
    },
    {
      "title": "Socha na žlutým baráku",
      "lat": 50.08111,
      "lng": 14.429562,
      "ornamentId": "ap1"
    },
    {
      "title": "Blue fish on the house",
      "lat": 50.081385,
      "lng": 14.428219,
      "ornamentId": "ap1"
    },
    {
      "title": "Výtopna Railway Restaurant",
      "lat": 50.080261,
      "lng": 14.428559,
      "ornamentId": "ap1"
    },
    {
      "title": "Josef Smrkovský Memorial Plaque",
      "lat": 50.080466,
      "lng": 14.428201,
      "ornamentId": "ap1"
    },
    {
      "title": "Karel Sokol",
      "lat": 50.08284,
      "lng": 14.43174,
      "ornamentId": "ap1"
    },
    {
      "title": "U Staré pošty",
      "lat": 50.082511,
      "lng": 14.431317,
      "ornamentId": "ap1"
    },
    {
      "title": "Galerie nadace ABF",
      "lat": 50.082382,
      "lng": 14.427761,
      "ornamentId": "ap1"
    },
    {
      "title": "fontána na Václavském Náměstí",
      "lat": 50.0839,
      "lng": 14.423943,
      "ornamentId": "ap1"
    },
    {
      "title": "Grand Hotel Europa",
      "lat": 50.082068,
      "lng": 14.427076,
      "ornamentId": "ap1"
    },
    {
      "title": "Fronton Avec Femme Sculptee",
      "lat": 50.082217,
      "lng": 14.431279,
      "ornamentId": "ap1"
    },
    {
      "title": "Zlatá lyra",
      "lat": 50.083795,
      "lng": 14.423038,
      "ornamentId": "ap1"
    },
    {
      "title": "Václavské náměstí - Wenceslas",
      "lat": 50.083568,
      "lng": 14.424415,
      "ornamentId": "ap1"
    },
    {
      "title": "House on Václavské Square",
      "lat": 50.082732,
      "lng": 14.42603,
      "ornamentId": "ap1"
    },
    {
      "title": "Lev nad oknem",
      "lat": 50.083421,
      "lng": 14.428675,
      "ornamentId": "ap1"
    },
    {
      "title": "Dělník",
      "lat": 50.082813,
      "lng": 14.429552,
      "ornamentId": "ap1"
    },
    {
      "title": "Velvyslanectví Bosny a Hercegoviny",
      "lat": 50.083482,
      "lng": 14.432306,
      "ornamentId": "ap1"
    },
    {
      "title": "Dreizack",
      "lat": 50.082731,
      "lng": 14.425276,
      "ornamentId": "ap1"
    },
    {
      "title": "Taras Ševčenko",
      "lat": 50.081796,
      "lng": 14.430754,
      "ornamentId": "ap1"
    },
    {
      "title": "Socha Sv. Václava",
      "lat": 50.079798,
      "lng": 14.429718,
      "ornamentId": "ap1"
    },
    {
      "title": "Opičí džungle",
      "lat": 50.083004,
      "lng": 14.43191,
      "ornamentId": "ap1"
    },
    {
      "title": "Old Man at Bench",
      "lat": 50.081623,
      "lng": 14.42766,
      "ornamentId": "ap1"
    },
    {
      "title": "Dům módy",
      "lat": 50.080016,
      "lng": 14.428965,
      "ornamentId": "ap1"
    },
    {
      "title": "Socha na fasádě",
      "lat": 50.083079,
      "lng": 14.430458,
      "ornamentId": "ap1"
    },
    {
      "title": "Mensworld",
      "lat": 50.083864,
      "lng": 14.424544,
      "ornamentId": "ap1"
    },
    {
      "title": "Pět soch na fasádě",
      "lat": 50.083457,
      "lng": 14.430566,
      "ornamentId": "ap1"
    },
    {
      "title": "Historical building on Venceslas square",
      "lat": 50.080716,
      "lng": 14.427702,
      "ornamentId": "ap1"
    },
    {
      "title": "Bamboo Garden and Tea Room",
      "lat": 50.083075,
      "lng": 14.425812,
      "ornamentId": "ap1"
    },
    {
      "title": "Hotel Zlatá Husa",
      "lat": 50.083594,
      "lng": 14.424841,
      "ornamentId": "ap1"
    },
    {
      "title": "Naked",
      "lat": 50.083555,
      "lng": 14.424068,
      "ornamentId": "ap1"
    },
    {
      "title": "Dáma použila magické natáčky",
      "lat": 50.082266,
      "lng": 14.426829,
      "ornamentId": "ap1"
    },
    {
      "title": "Autoklub České republiky",
      "lat": 50.083689,
      "lng": 14.432481,
      "ornamentId": "ap1"
    },
    {
      "title": "Dvojice lvů na balkoně",
      "lat": 50.082923,
      "lng": 14.431237,
      "ornamentId": "ap1"
    },
    {
      "title": "Statues of women on Wenceslas Square",
      "lat": 50.083797,
      "lng": 14.424866,
      "ornamentId": "ap1"
    },
    {
      "title": "Hlava nade dveřmi",
      "lat": 50.083837,
      "lng": 14.430014,
      "ornamentId": "ap1"
    },
    {
      "title": "Palác Generali",
      "lat": 50.08265,
      "lng": 14.426095,
      "ornamentId": "ap1"
    },
    {
      "title": "Hotel Jalta, Nové Město",
      "lat": 50.081129,
      "lng": 14.428358,
      "ornamentId": "ap1"
    },
    {
      "title": "Alois Oliva",
      "lat": 50.083228,
      "lng": 14.430902,
      "ornamentId": "ap1"
    },
    {
      "title": "Milec Cikán Memorial",
      "lat": 50.083993,
      "lng": 14.430853,
      "ornamentId": "ap1"
    },
    {
      "title": "Stolpersteiny - Stránský, Schleissnerová, Kopeckých",
      "lat": 50.082335,
      "lng": 14.429436,
      "ornamentId": "ap1"
    },
    {
      "title": "Plastická výzdoba",
      "lat": 50.083981,
      "lng": 14.423026,
      "ornamentId": "ap1"
    },
    {
      "title": "Architektonický prvek - Vodorovná Římsa",
      "lat": 50.08054,
      "lng": 14.42952,
      "ornamentId": "ap1"
    },
    {
      "title": "Měděná vež",
      "lat": 50.083846,
      "lng": 14.430297,
      "ornamentId": "ap1"
    },
    {
      "title": "Wenceslas Square Building",
      "lat": 50.082942,
      "lng": 14.424936,
      "ornamentId": "ap1"
    },
    {
      "title": "Piaceta Florentinum",
      "lat": 50.089334,
      "lng": 14.436323,
      "ornamentId": "ap1"
    },
    {
      "title": "Florentinum Plaza",
      "lat": 50.089133,
      "lng": 14.435409,
      "ornamentId": "ap1"
    },
    {
      "title": "Five Watchers",
      "lat": 50.085561,
      "lng": 14.431015,
      "ornamentId": "ap1"
    },
    {
      "title": "Statue 1874",
      "lat": 50.087172,
      "lng": 14.432176,
      "ornamentId": "ap1"
    },
    {
      "title": "Hybernská 14",
      "lat": 50.08719,
      "lng": 14.43182,
      "ornamentId": "ap1"
    },
    {
      "title": "Greek",
      "lat": 50.086866,
      "lng": 14.43213,
      "ornamentId": "ap1"
    },
    {
      "title": "Asekurační Spolek Průmyslu Cukrovarnického",
      "lat": 50.085769,
      "lng": 14.431287,
      "ornamentId": "ap1"
    },
    {
      "title": "Hlavy Zla",
      "lat": 50.085178,
      "lng": 14.433448,
      "ornamentId": "ap1"
    },
    {
      "title": "Pomník obětem Osvětimi",
      "lat": 50.085571,
      "lng": 14.431592,
      "ornamentId": "ap1"
    },
    {
      "title": "Socha s mušketou",
      "lat": 50.08543,
      "lng": 14.43179,
      "ornamentId": "ap1"
    },
    {
      "title": "Multiple Beautiful Ornaments",
      "lat": 50.085653,
      "lng": 14.432023,
      "ornamentId": "ap1"
    },
    {
      "title": "Andílek",
      "lat": 50.086377,
      "lng": 14.432149,
      "ornamentId": "ap1"
    },
    {
      "title": "Rudolf a Zděnka Abeles Kleinovi",
      "lat": 50.08603,
      "lng": 14.433714,
      "ornamentId": "ap1"
    },
    {
      "title": "Fronton De L Hotel Bosco",
      "lat": 50.086248,
      "lng": 14.43392,
      "ornamentId": "ap1"
    },
    {
      "title": "Franz Werfel Memorial",
      "lat": 50.088998,
      "lng": 14.432352,
      "ornamentId": "ap1"
    },
    {
      "title": "Fara u sv. Petra",
      "lat": 50.090933,
      "lng": 14.433876,
      "ornamentId": "ap1"
    },
    {
      "title": "Květinové zdobení",
      "lat": 50.08573,
      "lng": 14.433936,
      "ornamentId": "ap1"
    },
    {
      "title": "Černá Labuť",
      "lat": 50.090063,
      "lng": 14.434385,
      "ornamentId": "ap1"
    },
    {
      "title": "Obličej",
      "lat": 50.090535,
      "lng": 14.4345,
      "ornamentId": "ap1"
    },
    {
      "title": "Oběti nacismu",
      "lat": 50.08632,
      "lng": 14.434721,
      "ornamentId": "ap1"
    },
    {
      "title": "Plastika Zeny",
      "lat": 50.089689,
      "lng": 14.437211,
      "ornamentId": "ap1"
    },
    {
      "title": "Masaryčka",
      "lat": 50.088491,
      "lng": 14.433768,
      "ornamentId": "ap1"
    },
    {
      "title": "Metro B elevator",
      "lat": 50.09033,
      "lng": 14.437374,
      "ornamentId": "ap1"
    },
    {
      "title": "OC Bílá Labuť",
      "lat": 50.090003,
      "lng": 14.434061,
      "ornamentId": "ap1"
    },
    {
      "title": "Listova pasáž",
      "lat": 50.090843,
      "lng": 14.435819,
      "ornamentId": "ap1"
    },
    {
      "title": "Divadlo Archa",
      "lat": 50.089712,
      "lng": 14.434064,
      "ornamentId": "ap1"
    },
    {
      "title": "Plowing",
      "lat": 50.086576,
      "lng": 14.434858,
      "ornamentId": "ap1"
    },
    {
      "title": "Kostel sv. Petra",
      "lat": 50.091145,
      "lng": 14.434041,
      "ornamentId": "ap1"
    },
    {
      "title": "Apollinaire Statue",
      "lat": 50.089085,
      "lng": 14.434028,
      "ornamentId": "ap1"
    },
    {
      "title": "Památník povodní",
      "lat": 50.091232,
      "lng": 14.436317,
      "ornamentId": "ap1"
    },
    {
      "title": "Florence House",
      "lat": 50.090639,
      "lng": 14.436687,
      "ornamentId": "ap1"
    },
    {
      "title": "Svaz letců RČS",
      "lat": 50.090381,
      "lng": 14.435903,
      "ornamentId": "ap1"
    },
    {
      "title": "Socha naproti Bílé labuti",
      "lat": 50.089973,
      "lng": 14.435393,
      "ornamentId": "ap1"
    },
    {
      "title": "Shadows",
      "lat": 50.084554,
      "lng": 14.430355,
      "ornamentId": "ap1"
    },
    {
      "title": "U Jana Patočky",
      "lat": 50.084659,
      "lng": 14.430928,
      "ornamentId": "ap1"
    },
    {
      "title": "Socha svatého na zdi",
      "lat": 50.088072,
      "lng": 14.426824,
      "ornamentId": "ap1"
    },
    {
      "title": "Statue",
      "lat": 50.086737,
      "lng": 14.425511,
      "ornamentId": "ap1"
    },
    {
      "title": "Mango's Building",
      "lat": 50.084771,
      "lng": 14.424575,
      "ornamentId": "ap1"
    },
    {
      "title": "Velká paní",
      "lat": 50.0895,
      "lng": 14.427916,
      "ornamentId": "ap1"
    },
    {
      "title": "Ježíš na kříži",
      "lat": 50.088321,
      "lng": 14.425657,
      "ornamentId": "ap1"
    },
    {
      "title": "Svatý František",
      "lat": 50.088688,
      "lng": 14.428944,
      "ornamentId": "ap1"
    },
    {
      "title": "Na Gzymsie",
      "lat": 50.085379,
      "lng": 14.429454,
      "ornamentId": "ap1"
    },
    {
      "title": "Jaro",
      "lat": 50.090143,
      "lng": 14.424241,
      "ornamentId": "ap1"
    },
    {
      "title": "Bust of Václav Hollar",
      "lat": 50.091053,
      "lng": 14.429523,
      "ornamentId": "ap1"
    },
    {
      "title": "Fryderik Chopin House",
      "lat": 50.087075,
      "lng": 14.428843,
      "ornamentId": "ap1"
    },
    {
      "title": "Ozdobné fresky na historické budově",
      "lat": 50.085253,
      "lng": 14.429661,
      "ornamentId": "ap1"
    },
    {
      "title": "Odhalene Krasky Zlatnicke",
      "lat": 50.089943,
      "lng": 14.43235,
      "ornamentId": "ap1"
    },
    {
      "title": "Hilton Hotel Mosaic",
      "lat": 50.088541,
      "lng": 14.432222,
      "ornamentId": "ap1"
    },
    {
      "title": "Vultures",
      "lat": 50.087804,
      "lng": 14.425148,
      "ornamentId": "ap1"
    },
    {
      "title": "Ernst Mach Busta",
      "lat": 50.086579,
      "lng": 14.424319,
      "ornamentId": "ap1"
    },
    {
      "title": "Stolperstein",
      "lat": 50.090573,
      "lng": 14.432018,
      "ornamentId": "ap1"
    },
    {
      "title": "Two women looking at each other",
      "lat": 50.087316,
      "lng": 14.426677,
      "ornamentId": "ap1"
    },
    {
      "title": "The Vulture",
      "lat": 50.086858,
      "lng": 14.424389,
      "ornamentId": "ap1"
    },
    {
      "title": "Cafe Imperial",
      "lat": 50.089793,
      "lng": 14.432772,
      "ornamentId": "ap1"
    },
    {
      "title": "Kaiserliches Wappen",
      "lat": 50.085444,
      "lng": 14.425186,
      "ornamentId": "ap1"
    },
    {
      "title": "Living Building",
      "lat": 50.087671,
      "lng": 14.427356,
      "ornamentId": "ap1"
    },
    {
      "title": "Domovní znamení - Chodové",
      "lat": 50.085342,
      "lng": 14.42411,
      "ornamentId": "ap1"
    },
    {
      "title": "Pumpa",
      "lat": 50.087849,
      "lng": 14.423558,
      "ornamentId": "ap1"
    },
    {
      "title": "Hotel Paris",
      "lat": 50.08809,
      "lng": 14.427501,
      "ornamentId": "ap1"
    },
    {
      "title": "Kolowrat's Palace",
      "lat": 50.086028,
      "lng": 14.424211,
      "ornamentId": "ap1"
    },
    {
      "title": "Kolkovna Pilsner Restaurant",
      "lat": 50.084247,
      "lng": 14.425938,
      "ornamentId": "ap1"
    },
    {
      "title": "Mariensäule",
      "lat": 50.087576,
      "lng": 14.42289,
      "ornamentId": "ap1"
    },
    {
      "title": "Busta v Pasáži",
      "lat": 50.086669,
      "lng": 14.428049,
      "ornamentId": "ap1"
    },
    {
      "title": "Melantrich",
      "lat": 50.089007,
      "lng": 14.42815,
      "ornamentId": "ap1"
    },
    {
      "title": "Kamienica Z Wieżą Przy Ul. Rybnej",
      "lat": 50.089751,
      "lng": 14.426098,
      "ornamentId": "ap1"
    },
    {
      "title": "Bull",
      "lat": 50.0907,
      "lng": 14.426081,
      "ornamentId": "ap1"
    },
    {
      "title": "Bronze Hand",
      "lat": 50.086887,
      "lng": 14.425819,
      "ornamentId": "ap1"
    },
    {
      "title": "Otevřená mysl Art",
      "lat": 50.091053,
      "lng": 14.432501,
      "ornamentId": "ap1"
    },
    {
      "title": "Wax Museum",
      "lat": 50.08729,
      "lng": 14.422709,
      "ornamentId": "ap1"
    },
    {
      "title": "Koruna",
      "lat": 50.084576,
      "lng": 14.424301,
      "ornamentId": "ap1"
    },
    {
      "title": "Prašná Brána",
      "lat": 50.087174,
      "lng": 14.427819,
      "ornamentId": "ap1"
    },
    {
      "title": "Fontány Na Příkopě",
      "lat": 50.085141,
      "lng": 14.424678,
      "ornamentId": "ap1"
    },
    {
      "title": "Peacock ornament",
      "lat": 50.08716,
      "lng": 14.423115,
      "ornamentId": "ap1"
    },
    {
      "title": "Door with classical Women",
      "lat": 50.089969,
      "lng": 14.4289,
      "ornamentId": "ap1"
    },
    {
      "title": "Tvé Woman",
      "lat": 50.085809,
      "lng": 14.428355,
      "ornamentId": "ap1"
    },
    {
      "title": "Hotel Ruche",
      "lat": 50.084219,
      "lng": 14.423319,
      "ornamentId": "ap1"
    },
    {
      "title": "Ozdobný balkón",
      "lat": 50.08867,
      "lng": 14.429875,
      "ornamentId": "ap1"
    },
    {
      "title": "Můstek - Bývalý středověký most",
      "lat": 50.084621,
      "lng": 14.423291,
      "ornamentId": "ap1"
    },
    {
      "title": "Socha ženy s dítětem",
      "lat": 50.085171,
      "lng": 14.431552,
      "ornamentId": "ap1"
    },
    {
      "title": "Remembering Milan Mikulecky",
      "lat": 50.089721,
      "lng": 14.423055,
      "ornamentId": "ap1"
    },
    {
      "title": "Historisches Wohnhaus",
      "lat": 50.090829,
      "lng": 14.427957,
      "ornamentId": "ap1"
    },
    {
      "title": "Freundovi",
      "lat": 50.090677,
      "lng": 14.42735,
      "ornamentId": "ap1"
    },
    {
      "title": "Prager Gedenktafel",
      "lat": 50.089264,
      "lng": 14.42856,
      "ornamentId": "ap1"
    },
    {
      "title": "Koruza Roof",
      "lat": 50.084474,
      "lng": 14.424751,
      "ornamentId": "ap1"
    },
    {
      "title": "Címeres Ablakdisz",
      "lat": 50.089819,
      "lng": 14.423725,
      "ornamentId": "ap1"
    },
    {
      "title": "Information point",
      "lat": 50.089366,
      "lng": 14.425978,
      "ornamentId": "ap1"
    },
    {
      "title": "Čeští muzikanti",
      "lat": 50.085887,
      "lng": 14.432167,
      "ornamentId": "ap1"
    },
    {
      "title": "Kostel svatého Kříže",
      "lat": 50.085566,
      "lng": 14.425877,
      "ornamentId": "ap1"
    },
    {
      "title": "Gate Sculptures",
      "lat": 50.087282,
      "lng": 14.430175,
      "ornamentId": "ap1"
    },
    {
      "title": "Tragende Löwen",
      "lat": 50.087596,
      "lng": 14.42417,
      "ornamentId": "ap1"
    },
    {
      "title": "Tynsti Kaprici",
      "lat": 50.088872,
      "lng": 14.424098,
      "ornamentId": "ap1"
    },
    {
      "title": "Rudý Jelen",
      "lat": 50.088215,
      "lng": 14.430671,
      "ornamentId": "ap1"
    },
    {
      "title": "Antonín Matějček Memorial",
      "lat": 50.086186,
      "lng": 14.432957,
      "ornamentId": "ap1"
    },
    {
      "title": "Palladium",
      "lat": 50.089077,
      "lng": 14.428584,
      "ornamentId": "ap1"
    },
    {
      "title": "Pająk",
      "lat": 50.087253,
      "lng": 14.424663,
      "ornamentId": "ap1"
    },
    {
      "title": "Guardian Lion",
      "lat": 50.089639,
      "lng": 14.425741,
      "ornamentId": "ap1"
    },
    {
      "title": "Památce Josefa Plundry, Nové Město",
      "lat": 50.08648,
      "lng": 14.429228,
      "ornamentId": "ap1"
    },
    {
      "title": "Dělník",
      "lat": 50.085374,
      "lng": 14.425566,
      "ornamentId": "ap1"
    },
    {
      "title": "Rudolf Zedník Memorial Plague",
      "lat": 50.086211,
      "lng": 14.429288,
      "ornamentId": "ap1"
    },
    {
      "title": "Karel Havlíček Borovský",
      "lat": 50.087799,
      "lng": 14.432435,
      "ornamentId": "ap1"
    },
    {
      "title": "Socha Nil",
      "lat": 50.08597,
      "lng": 14.432741,
      "ornamentId": "ap1"
    },
    {
      "title": "Pražský znak",
      "lat": 50.088104,
      "lng": 14.428349,
      "ornamentId": "ap1"
    },
    {
      "title": "Old Balcony",
      "lat": 50.089451,
      "lng": 14.423681,
      "ornamentId": "ap1"
    },
    {
      "title": "Der Arme Bauer",
      "lat": 50.088015,
      "lng": 14.422866,
      "ornamentId": "ap1"
    },
    {
      "title": "Opletalova ulice",
      "lat": 50.084097,
      "lng": 14.432783,
      "ornamentId": "ap1"
    },
    {
      "title": "Baby Sculpture",
      "lat": 50.084547,
      "lng": 14.422692,
      "ornamentId": "ap1"
    },
    {
      "title": "Antique Wall Painting",
      "lat": 50.087092,
      "lng": 14.43361,
      "ornamentId": "ap1"
    },
    {
      "title": "Krásný Dům",
      "lat": 50.087124,
      "lng": 14.430587,
      "ornamentId": "ap1"
    },
    {
      "title": "Stemma Del Palazzo",
      "lat": 50.087761,
      "lng": 14.426515,
      "ornamentId": "ap1"
    },
    {
      "title": "Pachta Palace's Fasade",
      "lat": 50.087457,
      "lng": 14.426423,
      "ornamentId": "ap1"
    },
    {
      "title": "Marian Column",
      "lat": 50.087222,
      "lng": 14.423611,
      "ornamentId": "ap1"
    },
    {
      "title": "Malované okno",
      "lat": 50.087424,
      "lng": 14.429414,
      "ornamentId": "ap1"
    },
    {
      "title": "U Modré holubice",
      "lat": 50.084427,
      "lng": 14.422923,
      "ornamentId": "ap1"
    },
    {
      "title": "Divadlo Hybernia",
      "lat": 50.087418,
      "lng": 14.428645,
      "ornamentId": "ap1"
    },
    {
      "title": "Větrací Šachta Republika",
      "lat": 50.088029,
      "lng": 14.428906,
      "ornamentId": "ap1"
    },
    {
      "title": "Casino",
      "lat": 50.084979,
      "lng": 14.42489,
      "ornamentId": "ap1"
    },
    {
      "title": "Old Merchant",
      "lat": 50.087351,
      "lng": 14.427953,
      "ornamentId": "ap1"
    },
    {
      "title": "Dům u Černé matky Boží",
      "lat": 50.087213,
      "lng": 14.425674,
      "ornamentId": "ap1"
    },
    {
      "title": "Siddharta Caffè",
      "lat": 50.088081,
      "lng": 14.425636,
      "ornamentId": "ap1"
    },
    {
      "title": "Divadlo Broadway",
      "lat": 50.086567,
      "lng": 14.427012,
      "ornamentId": "ap1"
    },
    {
      "title": "Old Knight",
      "lat": 50.084661,
      "lng": 14.423903,
      "ornamentId": "ap1"
    },
    {
      "title": "Blue Lady",
      "lat": 50.089293,
      "lng": 14.428077,
      "ornamentId": "ap1"
    },
    {
      "title": "Muzeum Komunismu",
      "lat": 50.087913,
      "lng": 14.429828,
      "ornamentId": "ap1"
    },
    {
      "title": "Verni Zustaneme",
      "lat": 50.087122,
      "lng": 14.429243,
      "ornamentId": "ap1"
    },
    {
      "title": "Nekázanka",
      "lat": 50.085093,
      "lng": 14.42789,
      "ornamentId": "ap1"
    },
    {
      "title": "Bust",
      "lat": 50.091203,
      "lng": 14.430099,
      "ornamentId": "ap1"
    },
    {
      "title": "Rzezba na rogu",
      "lat": 50.087887,
      "lng": 14.42714,
      "ornamentId": "ap1"
    },
    {
      "title": "František Stadler - plaketa československého lidumila",
      "lat": 50.08693,
      "lng": 14.423219,
      "ornamentId": "ap1"
    },
    {
      "title": "Kavárenský host",
      "lat": 50.086463,
      "lng": 14.430008,
      "ornamentId": "ap1"
    },
    {
      "title": "Obecní dům, Staré Město",
      "lat": 50.087536,
      "lng": 14.428279,
      "ornamentId": "ap1"
    },
    {
      "title": "Wallchild",
      "lat": 50.087722,
      "lng": 14.425547,
      "ornamentId": "ap1"
    },
    {
      "title": "Angel Of The House",
      "lat": 50.090484,
      "lng": 14.425308,
      "ornamentId": "ap1"
    },
    {
      "title": "Pan Elegant",
      "lat": 50.087855,
      "lng": 14.428283,
      "ornamentId": "ap1"
    },
    {
      "title": "Rekonstrukce budovy 2018",
      "lat": 50.084959,
      "lng": 14.428349,
      "ornamentId": "ap1"
    },
    {
      "title": "Věrni Zůstaneme",
      "lat": 50.088195,
      "lng": 14.432384,
      "ornamentId": "ap1"
    },
    {
      "title": "Mother Roxy",
      "lat": 50.090124,
      "lng": 14.424762,
      "ornamentId": "ap1"
    },
    {
      "title": "Mořská panna",
      "lat": 50.085969,
      "lng": 14.426744,
      "ornamentId": "ap1"
    },
    {
      "title": "Josef Mánes, Staré Město",
      "lat": 50.091156,
      "lng": 14.423039,
      "ornamentId": "ap1"
    },
    {
      "title": "Informační Tabulky Otokar Březina",
      "lat": 50.089031,
      "lng": 14.433583,
      "ornamentId": "ap1"
    },
    {
      "title": "Maria with Jesus",
      "lat": 50.089805,
      "lng": 14.428746,
      "ornamentId": "ap1"
    },
    {
      "title": "Dům U Tří Lip",
      "lat": 50.085274,
      "lng": 14.425295,
      "ornamentId": "ap1"
    },
    {
      "title": "Fontána",
      "lat": 50.085547,
      "lng": 14.428554,
      "ornamentId": "ap1"
    },
    {
      "title": "Handbemalte Fassade",
      "lat": 50.087097,
      "lng": 14.425064,
      "ornamentId": "ap1"
    },
    {
      "title": "Zlatá Koruna palác",
      "lat": 50.084261,
      "lng": 14.423871,
      "ornamentId": "ap1"
    },
    {
      "title": "Díszes Homlokzat",
      "lat": 50.088165,
      "lng": 14.427949,
      "ornamentId": "ap1"
    },
    {
      "title": "Dvouhlavy Orel",
      "lat": 50.087196,
      "lng": 14.424048,
      "ornamentId": "ap1"
    },
    {
      "title": "Jaroslav Šustr - Lahůdky",
      "lat": 50.090234,
      "lng": 14.427251,
      "ornamentId": "ap1"
    },
    {
      "title": "Prague City Gallery",
      "lat": 50.090051,
      "lng": 14.427801,
      "ornamentId": "ap1"
    },
    {
      "title": "Okřídlený Los",
      "lat": 50.087714,
      "lng": 14.430826,
      "ornamentId": "ap1"
    },
    {
      "title": "Giddyup",
      "lat": 50.085581,
      "lng": 14.429121,
      "ornamentId": "ap1"
    },
    {
      "title": "Vousáč nad vchodem",
      "lat": 50.09125,
      "lng": 14.433202,
      "ornamentId": "ap1"
    },
    {
      "title": "Hotel Central",
      "lat": 50.087199,
      "lng": 14.430868,
      "ornamentId": "ap1"
    },
    {
      "title": "Stolperstein Aschenbrennerová",
      "lat": 50.089307,
      "lng": 14.426304,
      "ornamentId": "ap1"
    },
    {
      "title": "U České Orlice",
      "lat": 50.086683,
      "lng": 14.425129,
      "ornamentId": "ap1"
    },
    {
      "title": "Palladium Shopping Center",
      "lat": 50.08883,
      "lng": 14.428724,
      "ornamentId": "ap1"
    },
    {
      "title": "Bubbles",
      "lat": 50.088505,
      "lng": 14.431901,
      "ornamentId": "ap1"
    },
    {
      "title": "Relaxing Ladies",
      "lat": 50.088626,
      "lng": 14.427604,
      "ornamentId": "ap1"
    },
    {
      "title": "Creepy Guy Statue",
      "lat": 50.085094,
      "lng": 14.422605,
      "ornamentId": "ap1"
    },
    {
      "title": "Red Woman",
      "lat": 50.087393,
      "lng": 14.424583,
      "ornamentId": "ap1"
    },
    {
      "title": "Eagle and Lions",
      "lat": 50.090549,
      "lng": 14.429999,
      "ornamentId": "ap1"
    },
    {
      "title": "Nové Město (New Town)",
      "lat": 50.084494,
      "lng": 14.423738,
      "ornamentId": "ap1"
    },
    {
      "title": "Kostel svatého Josefa Praha Nové Město",
      "lat": 50.088884,
      "lng": 14.429363,
      "ornamentId": "ap1"
    },
    {
      "title": "Naháči pod lodžií",
      "lat": 50.090037,
      "lng": 14.428151,
      "ornamentId": "ap1"
    },
    {
      "title": "U Dörflerü",
      "lat": 50.084774,
      "lng": 14.424122,
      "ornamentId": "ap1"
    },
    {
      "title": "Atlas At The Balcony",
      "lat": 50.090833,
      "lng": 14.428271,
      "ornamentId": "ap1"
    },
    {
      "title": "Blue Light Tower",
      "lat": 50.084958,
      "lng": 14.424195,
      "ornamentId": "ap1"
    },
    {
      "title": "Probost",
      "lat": 50.086275,
      "lng": 14.425482,
      "ornamentId": "ap1"
    },
    {
      "title": "Inner City Skyway",
      "lat": 50.085838,
      "lng": 14.427006,
      "ornamentId": "ap1"
    },
    {
      "title": "Dangling Feet Statues",
      "lat": 50.087431,
      "lng": 14.427604,
      "ornamentId": "ap1"
    },
    {
      "title": "Železná Špička",
      "lat": 50.087557,
      "lng": 14.425277,
      "ornamentId": "ap1"
    },
    {
      "title": "Golden Sun",
      "lat": 50.089695,
      "lng": 14.433259,
      "ornamentId": "ap1"
    },
    {
      "title": "Naštvaný Chrlič",
      "lat": 50.084644,
      "lng": 14.425192,
      "ornamentId": "ap1"
    },
    {
      "title": "Zde působila Olga Havlová",
      "lat": 50.085865,
      "lng": 14.429851,
      "ornamentId": "ap1"
    },
    {
      "title": "Pizzeria Pavaon",
      "lat": 50.085651,
      "lng": 14.426373,
      "ornamentId": "ap1"
    },
    {
      "title": "Face On Rybna 13",
      "lat": 50.089167,
      "lng": 14.425941,
      "ornamentId": "ap1"
    },
    {
      "title": "Strom Olgy Havlové",
      "lat": 50.085446,
      "lng": 14.429836,
      "ornamentId": "ap1"
    },
    {
      "title": "Palace Archa",
      "lat": 50.089774,
      "lng": 14.433589,
      "ornamentId": "ap1"
    },
    {
      "title": "Fontána se žlutým kamenem",
      "lat": 50.084536,
      "lng": 14.427911,
      "ornamentId": "ap1"
    },
    {
      "title": "Modern Art",
      "lat": 50.086449,
      "lng": 14.424956,
      "ornamentId": "ap1"
    },
    {
      "title": "Collegium Clericorum Regularium",
      "lat": 50.08508,
      "lng": 14.426437,
      "ornamentId": "ap1"
    },
    {
      "title": "Burning Car",
      "lat": 50.088738,
      "lng": 14.426579,
      "ornamentId": "ap1"
    },
    {
      "title": "Stará Celnice",
      "lat": 50.088193,
      "lng": 14.430304,
      "ornamentId": "ap1"
    },
    {
      "title": "Lion Of OZ",
      "lat": 50.084615,
      "lng": 14.427114,
      "ornamentId": "ap1"
    },
    {
      "title": "Jindřišská věž",
      "lat": 50.085089,
      "lng": 14.429967,
      "ornamentId": "ap1"
    },
    {
      "title": "Mořeplavec ve Zlatnické",
      "lat": 50.090301,
      "lng": 14.432193,
      "ornamentId": "ap1"
    },
    {
      "title": "Hnízdo",
      "lat": 50.085902,
      "lng": 14.428077,
      "ornamentId": "ap1"
    },
    {
      "title": "Università Carolina",
      "lat": 50.086448,
      "lng": 14.423532,
      "ornamentId": "ap1"
    },
    {
      "title": "Trumpetista",
      "lat": 50.089023,
      "lng": 14.430286,
      "ornamentId": "ap1"
    },
    {
      "title": "Karel Bendl",
      "lat": 50.091013,
      "lng": 14.429106,
      "ornamentId": "ap1"
    },
    {
      "title": "Manhartský palác",
      "lat": 50.087148,
      "lng": 14.424664,
      "ornamentId": "ap1"
    },
    {
      "title": "Child With A Top Hat",
      "lat": 50.089954,
      "lng": 14.426954,
      "ornamentId": "ap1"
    },
    {
      "title": "Panna Maria na Evangelické modlitebně",
      "lat": 50.090068,
      "lng": 14.429327,
      "ornamentId": "ap1"
    },
    {
      "title": "Bůh slunce Ra",
      "lat": 50.084744,
      "lng": 14.42854,
      "ornamentId": "ap1"
    },
    {
      "title": "Vodopád Palladium",
      "lat": 50.08902,
      "lng": 14.429783,
      "ornamentId": "ap1"
    },
    {
      "title": "Větrací šachta Náměstí republiky",
      "lat": 50.087687,
      "lng": 14.429589,
      "ornamentId": "ap1"
    },
    {
      "title": "Balcony Man",
      "lat": 50.08911,
      "lng": 14.423931,
      "ornamentId": "ap1"
    },
    {
      "title": "Výhled V Týnské Uličce",
      "lat": 50.087405,
      "lng": 14.423035,
      "ornamentId": "ap1"
    },
    {
      "title": "Plastika na narozi",
      "lat": 50.091344,
      "lng": 14.417805,
      "ornamentId": "ap1"
    },
    {
      "title": "Právnická fakulta Univerzity Karlovy",
      "lat": 50.091702,
      "lng": 14.417471,
      "ornamentId": "ap1"
    },
    {
      "title": "Religious Statues",
      "lat": 50.092015,
      "lng": 14.422078,
      "ornamentId": "ap1"
    },
    {
      "title": "Dalekanium V Petrske",
      "lat": 50.091699,
      "lng": 14.435521,
      "ornamentId": "ap1"
    },
    {
      "title": "Onyx Cube S Odrazem",
      "lat": 50.092414,
      "lng": 14.433717,
      "ornamentId": "ap1"
    },
    {
      "title": "Nemocnice Na Františku",
      "lat": 50.092808,
      "lng": 14.421333,
      "ornamentId": "ap1"
    },
    {
      "title": "Smutný tučňák",
      "lat": 50.09266,
      "lng": 14.421834,
      "ornamentId": "ap1"
    },
    {
      "title": "Panna s pohárem na hlavě",
      "lat": 50.091622,
      "lng": 14.422075,
      "ornamentId": "ap1"
    },
    {
      "title": "Sitting On The Facade",
      "lat": 50.092512,
      "lng": 14.425884,
      "ornamentId": "ap1"
    },
    {
      "title": "Ministerstvo průmyslu a obchodu",
      "lat": 50.093029,
      "lng": 14.425763,
      "ornamentId": "ap1"
    },
    {
      "title": "Multifunkční stadion",
      "lat": 50.092615,
      "lng": 14.422667,
      "ornamentId": "ap1"
    },
    {
      "title": "Mural",
      "lat": 50.091871,
      "lng": 14.424187,
      "ornamentId": "ap1"
    },
    {
      "title": "Automaticka Telefoni Ustredna Tesnov",
      "lat": 50.091625,
      "lng": 14.435016,
      "ornamentId": "ap1"
    },
    {
      "title": "Stolpersteine Petr Ginz",
      "lat": 50.092321,
      "lng": 14.43598,
      "ornamentId": "ap1"
    },
    {
      "title": "Kolár-Ofnerová Stolpersteine",
      "lat": 50.092458,
      "lng": 14.434191,
      "ornamentId": "ap1"
    },
    {
      "title": "Kašna",
      "lat": 50.091737,
      "lng": 14.43458,
      "ornamentId": "ap1"
    },
    {
      "title": "Hotel a restaurace Opera",
      "lat": 50.09197,
      "lng": 14.436273,
      "ornamentId": "ap1"
    },
    {
      "title": "Zvonice kostela Sv. Petra",
      "lat": 50.091338,
      "lng": 14.43381,
      "ornamentId": "ap1"
    },
    {
      "title": "Jan Půta",
      "lat": 50.092478,
      "lng": 14.435526,
      "ornamentId": "ap1"
    },
    {
      "title": "Památník Boje Proti Fašismu",
      "lat": 50.091333,
      "lng": 14.434681,
      "ornamentId": "ap1"
    },
    {
      "title": "Pamětní dlaždice",
      "lat": 50.092461,
      "lng": 14.434832,
      "ornamentId": "ap1"
    },
    {
      "title": "\"For King\"",
      "lat": 50.091834,
      "lng": 14.437297,
      "ornamentId": "ap1"
    },
    {
      "title": "Verejne Hriste",
      "lat": 50.092468,
      "lng": 14.422339,
      "ornamentId": "ap1"
    },
    {
      "title": "Moorage 5. Vltava",
      "lat": 50.092006,
      "lng": 14.416653,
      "ornamentId": "ap1"
    },
    {
      "title": "Relief Waves",
      "lat": 50.09167,
      "lng": 14.419394,
      "ornamentId": "ap1"
    },
    {
      "title": "Corner Lady",
      "lat": 50.091286,
      "lng": 14.422103,
      "ornamentId": "ap1"
    },
    {
      "title": "Halo",
      "lat": 50.09195,
      "lng": 14.421502,
      "ornamentId": "ap1"
    },
    {
      "title": "Cross-Bearer",
      "lat": 50.091943,
      "lng": 14.420911,
      "ornamentId": "ap1"
    },
    {
      "title": "kavárna u Čechova mostu",
      "lat": 50.092211,
      "lng": 14.417315,
      "ornamentId": "ap1"
    },
    {
      "title": "Intercontinental Gold Sign",
      "lat": 50.091744,
      "lng": 14.418215,
      "ornamentId": "ap1"
    },
    {
      "title": "The Saint",
      "lat": 50.091939,
      "lng": 14.421209,
      "ornamentId": "ap1"
    },
    {
      "title": "Intercontinental Statue",
      "lat": 50.091321,
      "lng": 14.418405,
      "ornamentId": "ap1"
    },
    {
      "title": "Povodně 2002",
      "lat": 50.092789,
      "lng": 14.420772,
      "ornamentId": "ap1"
    },
    {
      "title": "Roof Statue",
      "lat": 50.091994,
      "lng": 14.420382,
      "ornamentId": "ap1"
    },
    {
      "title": "Statues",
      "lat": 50.092735,
      "lng": 14.43055,
      "ornamentId": "ap1"
    },
    {
      "title": "Zde se narodil Max Brod",
      "lat": 50.091763,
      "lng": 14.42623,
      "ornamentId": "ap1"
    },
    {
      "title": "Park Lannova",
      "lat": 50.092802,
      "lng": 14.428643,
      "ornamentId": "ap1"
    },
    {
      "title": "Svatý Salvátor v Anežském Klášteře",
      "lat": 50.092501,
      "lng": 14.42492,
      "ornamentId": "ap1"
    },
    {
      "title": "Madonna Incoronata",
      "lat": 50.092743,
      "lng": 14.423255,
      "ornamentId": "ap1"
    },
    {
      "title": "Statue",
      "lat": 50.092796,
      "lng": 14.42416,
      "ornamentId": "ap1"
    },
    {
      "title": "Dr. Augustin Pechlát",
      "lat": 50.091926,
      "lng": 14.427639,
      "ornamentId": "ap1"
    },
    {
      "title": "Pamětní deska Christiana Dopplera",
      "lat": 50.091311,
      "lng": 14.423147,
      "ornamentId": "ap1"
    },
    {
      "title": "Red Thing",
      "lat": 50.092509,
      "lng": 14.424353,
      "ornamentId": "ap1"
    },
    {
      "title": "Thing",
      "lat": 50.092746,
      "lng": 14.424575,
      "ornamentId": "ap1"
    },
    {
      "title": "Hausverzierung",
      "lat": 50.091312,
      "lng": 14.431086,
      "ornamentId": "ap1"
    },
    {
      "title": "MZO 1955",
      "lat": 50.0921,
      "lng": 14.43127,
      "ornamentId": "ap1"
    },
    {
      "title": "Stolpersteine - Elsa Wotrubová",
      "lat": 50.092264,
      "lng": 14.432656,
      "ornamentId": "ap1"
    },
    {
      "title": "Naked Nymph",
      "lat": 50.09185,
      "lng": 14.427358,
      "ornamentId": "ap1"
    },
    {
      "title": "Hausmarke",
      "lat": 50.091513,
      "lng": 14.428252,
      "ornamentId": "ap1"
    },
    {
      "title": "Skull on body",
      "lat": 50.092313,
      "lng": 14.424771,
      "ornamentId": "ap1"
    },
    {
      "title": "Reader",
      "lat": 50.092934,
      "lng": 14.425174,
      "ornamentId": "ap1"
    },
    {
      "title": "U Červeného Kola",
      "lat": 50.091637,
      "lng": 14.424262,
      "ornamentId": "ap1"
    },
    {
      "title": "Dvě nymfy",
      "lat": 50.091314,
      "lng": 14.427966,
      "ornamentId": "ap1"
    },
    {
      "title": "Památný Dub letní v Řásnovce",
      "lat": 50.092111,
      "lng": 14.425266,
      "ornamentId": "ap1"
    },
    {
      "title": "Rekonstrukce Štefánikova mostu",
      "lat": 50.093176,
      "lng": 14.427418,
      "ornamentId": "ap1"
    },
    {
      "title": "Zde padl Josef Voříšek",
      "lat": 50.092361,
      "lng": 14.427201,
      "ornamentId": "ap1"
    },
    {
      "title": "Composizione Di Statue",
      "lat": 50.092553,
      "lng": 14.423239,
      "ornamentId": "ap1"
    },
    {
      "title": "Jindřich Honzl",
      "lat": 50.092771,
      "lng": 14.431839,
      "ornamentId": "ap1"
    },
    {
      "title": "Republica De Colombia",
      "lat": 50.091959,
      "lng": 14.426191,
      "ornamentId": "ap1"
    },
    {
      "title": "Jan a Marie Sigmundovi",
      "lat": 50.09261,
      "lng": 14.430968,
      "ornamentId": "ap1"
    },
    {
      "title": "Park Lannova",
      "lat": 50.092956,
      "lng": 14.432191,
      "ornamentId": "ap1"
    },
    {
      "title": "Vladislav Vančura",
      "lat": 50.091632,
      "lng": 14.428626,
      "ornamentId": "ap1"
    },
    {
      "title": "Colored Cube",
      "lat": 50.093122,
      "lng": 14.430968,
      "ornamentId": "ap1"
    },
    {
      "title": "Poštovní Muzeum",
      "lat": 50.092261,
      "lng": 14.428647,
      "ornamentId": "ap1"
    },
    {
      "title": "Novomlýnská vodárenská věž",
      "lat": 50.092307,
      "lng": 14.428351,
      "ornamentId": "ap1"
    },
    {
      "title": "Relaxing Statue",
      "lat": 50.092976,
      "lng": 14.426661,
      "ornamentId": "ap1"
    },
    {
      "title": "Stoned Aries",
      "lat": 50.092538,
      "lng": 14.425515,
      "ornamentId": "ap1"
    },
    {
      "title": "A fresco Dell Aacensione",
      "lat": 50.091684,
      "lng": 14.424959,
      "ornamentId": "ap1"
    },
    {
      "title": "Galery",
      "lat": 50.092822,
      "lng": 14.423568,
      "ornamentId": "ap1"
    },
    {
      "title": "Wish well",
      "lat": 50.092242,
      "lng": 14.423499,
      "ornamentId": "ap1"
    },
    {
      "title": "Dum S Baculatyma Andelickama",
      "lat": 50.091327,
      "lng": 14.431778,
      "ornamentId": "ap1"
    },
    {
      "title": "Park Lannova",
      "lat": 50.093284,
      "lng": 14.431674,
      "ornamentId": "ap1"
    },
    {
      "title": "Afftesco Sull'abazia",
      "lat": 50.092422,
      "lng": 14.429079,
      "ornamentId": "ap1"
    },
    {
      "title": "Kostel sv. Klimenta",
      "lat": 50.091965,
      "lng": 14.429056,
      "ornamentId": "ap1"
    },
    {
      "title": "Anděl",
      "lat": 50.092436,
      "lng": 14.428776,
      "ornamentId": "ap1"
    },
    {
      "title": "Svatý v okně",
      "lat": 50.092196,
      "lng": 14.432353,
      "ornamentId": "ap1"
    },
    {
      "title": "Paladin",
      "lat": 50.092655,
      "lng": 14.426613,
      "ornamentId": "ap1"
    },
    {
      "title": "Petrske Lavicky",
      "lat": 50.091433,
      "lng": 14.43216,
      "ornamentId": "ap1"
    },
    {
      "title": "Two Young Male Statues",
      "lat": 50.092557,
      "lng": 14.426181,
      "ornamentId": "ap1"
    }
  ]
}